"","SALE TYPE","SOLD DATE","PROPERTY TYPE","ADDRESS","CITY","STATE","ZIP","PRICE","BEDS","BATHS","LOCATION","SQUARE FEET","LOT SIZE","YEAR BUILT","DAYS ON MARKET","$/SQUARE FEET","HOA/MONTH","STATUS","NEXT OPEN HOUSE START TIME","NEXT OPEN HOUSE END TIME","URL (SEE http://www.redfin.com/buy-a-home/comparative-market-analysis FOR INFO ON PRICING)","SOURCE","MLS#","FAVORITE","INTERESTED","LATITUDE","LONGITUDE","date_collected"
"1","MLS Listing",NA,"Single Family Residential","718 Buchanan St NE","Minneapolis","MN",55413,269999,3,1,"Beltrami",1386,5227,1910,1,195,NA,"Active","December-16-2018 11:00 AM","December-16-2018 01:00 PM","http://www.redfin.com/MN/Minneapolis/718-Buchanan-St-NE-55413/home/51363392","NORTHSTARMLS","5131408","N","Y",44.9974866,-93.2399743,2018-12-14
"2","MLS Listing",NA,"Multi-Family (2-4 Unit)","9729 Utica Rd","Bloomington","MN",55437,575000,6,6,"Bloomington",5936,15681,1972,1,97,NA,"Active",NA,NA,"http://www.redfin.com/MN/Minneapolis/9729-Utica-Rd-55437/home/51399155","NORTHSTARMLS","5131424","N","Y",44.827128,-93.348012,2018-12-14
"3","MLS Listing",NA,"Single Family Residential","3631 Colfax Ave N","Minneapolis","MN",55412,185000,3,2,"McKinley",1211,4791,1915,1,153,NA,"Active",NA,NA,"http://www.redfin.com/MN/Minneapolis/3631-Colfax-Ave-N-55412/home/51294636","NORTHSTARMLS","5130920","N","Y",45.0212383,-93.2920922,2018-12-14
"4","MLS Listing",NA,"Single Family Residential","6277 Century Blvd","Brooklyn Park","MN",55429,229900,4,2,"Brooklyn Park",1606,11325,1978,1,143,NA,"Active",NA,NA,"http://www.redfin.com/MN/Minneapolis/6277-Century-Blvd-55429/home/51473834","NORTHSTARMLS","5131409","N","Y",45.0862283,-93.3610373,2018-12-14
"5","MLS Listing",NA,"Single Family Residential","5045 Xerxes Ave S","Minneapolis","MN",55410,367500,3,1,"Fulton",1300,7840,1924,1,283,NA,"Active","December-16-2018 12:00 PM","December-16-2018 02:00 PM","http://www.redfin.com/MN/Minneapolis/5045-Xerxes-Ave-S-55410/home/51391825","NORTHSTARMLS","5131410","N","Y",44.9110891,-93.3184973,2018-12-14
"6","MLS Listing",NA,"Single Family Residential","7332 Girard Ave S","Richfield","MN",55423,342800,4,3,"Richfield",2020,6621,1947,1,170,NA,"Active",NA,NA,"http://www.redfin.com/MN/Richfield/7332-Girard-Ave-S-55423/home/51507723","NORTHSTARMLS","5130832","N","Y",44.8696698,-93.2976079,2018-12-14
"7","MLS Listing",NA,"Single Family Residential","8340 Upton Ave N","Brooklyn Park","MN",55444,249998,5,2,"Brooklyn Park",2356,12632,1977,1,106,NA,"Active","December-15-2018 11:00 AM","December-15-2018 01:00 PM","http://www.redfin.com/MN/Minneapolis/8340-Upton-Ave-N-55444/home/49978367","NORTHSTARMLS","5131014","N","Y",45.1066552,-93.3162688,2018-12-14
"8","MLS Listing",NA,"Single Family Residential","2855 Toledo Ave S","St. Louis Park","MN",55416,289900,2,2,"St. Louis Park",2384,5227,1917,1,122,NA,"Active","December-15-2018 12:00 PM","December-15-2018 04:30 PM","http://www.redfin.com/MN/Minneapolis/2855-Toledo-Ave-S-55416/home/51491899","NORTHSTARMLS","5019317","N","Y",44.9504153,-93.3464874,2018-12-14
"9","MLS Listing",NA,"Single Family Residential","4232 Elliot Ave","Minneapolis","MN",55407,209900,2,1,"Northrop",880,4791,1925,1,239,NA,"Active",NA,NA,"http://www.redfin.com/MN/Minneapolis/4232-Elliot-Ave-55407/home/51347595","NORTHSTARMLS","5131405","N","Y",44.9258836,-93.2615647,2018-12-14
"10","MLS Listing",NA,"Single Family Residential","10425 Blaisdell Ave S","Bloomington","MN",55420,219900,3,3,"Bloomington",2007,13939,1956,1,110,NA,"Active",NA,NA,"http://www.redfin.com/MN/Minneapolis/10425-Blaisdell-Ave-S-55420/home/50029774","NORTHSTARMLS","5131399","N","Y",44.8149692,-93.2795185,2018-12-14
"11","MLS Listing",NA,"Multi-Family (2-4 Unit)","3725 10th Ave S","Minneapolis","MN",55407,350000,4,2,"Powderhorn Park",2608,4791,1939,1,134,NA,"Active",NA,NA,"http://www.redfin.com/MN/Minneapolis/3725-10th-Ave-S-55407/home/51283381","NORTHSTARMLS","5028601","N","Y",44.9351593,-93.2596395,2018-12-14
"12","MLS Listing",NA,"Single Family Residential","5753 19th Ave S","Minneapolis","MN",55417,265000,3,1,"Wenonah",1575,5227,1945,1,168,NA,"Active","December-15-2018 01:00 PM","December-15-2018 02:30 PM","http://www.redfin.com/MN/Minneapolis/5753-19th-Ave-S-55417/home/49990037","NORTHSTARMLS","5023952","N","Y",44.8981055,-93.2447117,2018-12-14
"13","MLS Listing",NA,"Single Family Residential","2910 California St NE","Minneapolis","MN",55418,350000,5,2,"Marshall Terrace",2088,5227,1900,1,168,NA,"Active",NA,NA,"http://www.redfin.com/MN/Minneapolis/2910-California-St-NE-55418/home/51289108","NORTHSTARMLS","5131335","N","Y",45.0209024,-93.2694467,2018-12-14
"14","MLS Listing",NA,"Single Family Residential","2445 Winfield Ave N","Golden Valley","MN",55422,395000,4,3,"Golden Valley",3084,14374,1959,1,128,NA,"Active","December-16-2018 11:00 AM","December-16-2018 01:00 PM","http://www.redfin.com/MN/Minneapolis/2445-Winfield-Ave-55422/home/51472453","NORTHSTARMLS","5130880","N","Y",45.0056818,-93.3505215,2018-12-14
"15","MLS Listing",NA,"Single Family Residential","2920 Quentin Ave","St. Louis Park","MN",55416,429000,4,2,"St. Louis Park",1864,10454,1920,1,230,NA,"Active",NA,NA,"http://www.redfin.com/MN/Minneapolis/2920-Quentin-Ave-55416/home/51491955","NORTHSTARMLS","5020882","N","Y",44.949494,-93.343311,2018-12-14
"16","MLS Listing",NA,"Single Family Residential","1816 Hampshire Ave S","St. Louis Park","MN",55426,259900,3,1,"St. Louis Park",946,7405,1954,1,275,NA,"Active","December-16-2018 12:00 PM","December-16-2018 02:00 PM","http://www.redfin.com/MN/Minneapolis/1816-Hampshire-Ave-S-55426/home/51303129","NORTHSTARMLS","5131255","N","Y",44.96475,-93.366291,2018-12-14
"17","MLS Listing",NA,"Single Family Residential","3715 21st Ave S","Minneapolis","MN",55407,214900,2,2,"Standish",1175,4791,1901,1,183,NA,"Active","December-15-2018 01:00 PM","December-15-2018 03:00 PM","http://www.redfin.com/MN/Minneapolis/3715-21st-Ave-S-55407/home/50060811","NORTHSTARMLS","5131293","N","Y",44.9353709,-93.2419231,2018-12-14
"18","MLS Listing",NA,"Single Family Residential","5932 Hampshire Ave N","Crystal","MN",55428,199999,2,1,"Crystal",1388,5924,1954,1,144,NA,"Active",NA,NA,"http://www.redfin.com/MN/Minneapolis/5932-Hampshire-Ave-N-55428/home/51304035","NORTHSTARMLS","5130724","N","Y",45.061205,-93.3648793,2018-12-14
"19","MLS Listing",NA,"Single Family Residential","3924 Snelling Ave","Minneapolis","MN",55406,209900,2,2,"Howe",1554,6098,1913,1,135,NA,"Active","December-15-2018 12:30 PM","December-15-2018 02:00 PM","http://www.redfin.com/MN/Minneapolis/3924-Snelling-Ave-55406/home/50005903","NORTHSTARMLS","5131186","N","Y",44.9315718,-93.2241739,2018-12-14
"20","MLS Listing",NA,"Single Family Residential","3824 38th Ave S","Minneapolis","MN",55406,269900,3,2,"Howe",1210,5227,1928,1,223,NA,"Active","December-16-2018 02:00 PM","December-16-2018 04:00 PM","http://www.redfin.com/MN/Minneapolis/3824-38th-Ave-S-55406/home/51315914","NORTHSTARMLS","5130904","N","Y",44.9334537,-93.2181673,2018-12-14
"21","MLS Listing",NA,"Single Family Residential","8739 Bloomington Ave S","Bloomington","MN",55425,245000,3,1,"Bloomington",1302,12196,1953,1,188,NA,"Active",NA,NA,"http://www.redfin.com/MN/Bloomington/8739-Bloomington-Ave-S-55425/home/49908576","NORTHSTARMLS","5130291","N","Y",44.8446548,-93.2526661,2018-12-14
"22","MLS Listing",NA,"Single Family Residential","3305 Cedar Ave S","Minneapolis","MN",55407,250000,4,2,"Corcoran",1312,8276,1900,1,191,NA,"Active","December-16-2018 11:00 AM","December-16-2018 12:30 PM","http://www.redfin.com/MN/Minneapolis/3305-Cedar-Ave-55407/home/49966489","NORTHSTARMLS","5130375","N","Y",44.9427316,-93.2470685,2018-12-14
"23","MLS Listing",NA,"Single Family Residential","5504 37th Ave S","Minneapolis","MN",55417,214500,2,2,"Morris Park",1508,5227,1947,1,142,NA,"Active","December-15-2018 02:00 PM","December-15-2018 04:00 PM","http://www.redfin.com/MN/Minneapolis/5504-37th-Ave-S-55417/home/51410604","NORTHSTARMLS","5029069","N","Y",44.9033076,-93.219345,2018-12-14
"24","MLS Listing",NA,"Single Family Residential","3852 Aldrich Ave S","Minneapolis","MN",55409,475000,3,2,"East Harriet",2033,3484,1918,1,234,NA,"Active","December-16-2018 01:00 PM","December-16-2018 03:00 PM","http://www.redfin.com/MN/Minneapolis/3852-Aldrich-Ave-S-55409/home/51333323","NORTHSTARMLS","5130155","N","Y",44.9324019,-93.2897839,2018-12-14
"25","MLS Listing",NA,"Single Family Residential","500 Yosemite Ave N","Golden Valley","MN",55422,450000,3,2,"Golden Valley",1948,12719,1956,1,231,NA,"Active",NA,NA,"http://www.redfin.com/MN/Minneapolis/500-Yosemite-Ave-N-55422/home/50102009","NORTHSTARMLS","5130837","N","Y",44.9836603,-93.3541913,2018-12-14
"26","MLS Listing",NA,"Single Family Residential","3809 Scott Ave N","Robbinsdale","MN",55422,200000,2,1,"Robbinsdale",1428,6490,1952,1,140,NA,"Active",NA,NA,"http://www.redfin.com/MN/Minneapolis/3809-Scott-Ave-N-55422/home/51310313","NORTHSTARMLS","5029047","N","Y",45.0244861,-93.3457424,2018-12-14
"27","MLS Listing",NA,"Single Family Residential","2808 Kentucky Ave S","St. Louis Park","MN",55426,249900,2,1,"St. Louis Park",1198,5227,1949,1,209,NA,"Active",NA,NA,"http://www.redfin.com/MN/Minneapolis/2808-Kentucky-Ave-S-55426/home/50171423","NORTHSTARMLS","5131043","N","Y",44.95276,-93.369952,2018-12-14
"28","MLS Listing",NA,"Single Family Residential","2601 York Ave N","Robbinsdale","MN",55422,299900,3,2,"Robbinsdale",1732,NA,1948,1,173,NA,"Active",NA,NA,"http://www.redfin.com/MN/Minneapolis/2601-York-Ave-N-55422/home/51327205","NORTHSTARMLS","5130846","N","Y",45.0061962,-93.3200364,2018-12-14
"29","MLS Listing",NA,"Single Family Residential","7908 Lea Rd","Bloomington","MN",55438,324900,3,1,"Bloomington",1446,17424,1953,1,225,NA,"Active",NA,NA,"http://www.redfin.com/MN/Minneapolis/7908-Lea-Rd-55438/home/51403454","NORTHSTARMLS","5130731","N","Y",44.8592504,-93.3789267,2018-12-14
"30","MLS Listing",NA,"Single Family Residential","4425 33rd Ave S","Minneapolis","MN",55406,289000,3,2,"Ericsson",1429,5662,1948,1,202,NA,"Active","December-16-2018 12:00 PM","December-16-2018 02:00 PM","http://www.redfin.com/MN/Minneapolis/4425-33rd-Ave-S-55406/home/50026688","NORTHSTARMLS","5131185","N","Y",44.9225003,-93.2240168,2018-12-14
"31","MLS Listing",NA,"Single Family Residential","1436 Hillsboro Ave S","St. Louis Park","MN",55426,275000,3,1,"St. Louis Park",1360,7405,1959,1,202,NA,"Active","December-15-2018 01:00 PM","December-15-2018 03:00 PM","http://www.redfin.com/MN/Minneapolis/1436-Hillsboro-Ave-S-55426/home/50120428","NORTHSTARMLS","5011325","N","Y",44.9681668,-93.3985366,2018-12-14
"32","MLS Listing",NA,"Single Family Residential","6700 Shingle Creek Dr","Brooklyn Park","MN",55445,269900,4,3,"Brooklyn Park",2301,10454,1978,1,117,NA,"Active","December-22-2018 02:00 PM","December-22-2018 04:00 PM","http://www.redfin.com/MN/Minneapolis/6700-Shingle-Creek-Dr-55445/home/51425807","NORTHSTARMLS","5131045","N","Y",45.1006348,-93.3669383,2018-12-14
"33","MLS Listing",NA,"Single Family Residential","4608 Ewing Ave S","Minneapolis","MN",55410,379900,4,2,"Linden Hills",1764,5662,1925,1,215,NA,"Active","December-16-2018 01:30 PM","December-16-2018 03:30 PM","http://www.redfin.com/MN/Minneapolis/4608-Ewing-Ave-S-55410/home/51390489","NORTHSTARMLS","5130861","N","Y",44.9193371,-93.3281691,2018-12-14
"34","MLS Listing",NA,"Single Family Residential","5415 Girard Ave N Unit B","Brooklyn Center","MN",55430,180000,2,2,"Brooklyn Center",3044,5052,2003,1,59,NA,"Active",NA,NA,"http://www.redfin.com/MN/Brooklyn-Center/5415-Girard-Ave-N-55430/unit-B/home/51279140","NORTHSTARMLS","5131017","N","Y",45.053855,-93.2981455,2018-12-14
"35","MLS Listing",NA,"Multi-Family (2-4 Unit)","2315 W 58th St","Minneapolis","MN",55410,350000,4,2,"Armatage",2000,10890,1957,1,175,NA,"Active",NA,NA,"http://www.redfin.com/MN/Minneapolis/2315-W-58th-St-55410/home/51420883","NORTHSTARMLS","5130983","N","Y",44.8976169,-93.309403,2018-12-14
"36","MLS Listing",NA,"Single Family Residential","10040 Irwin Cir","Bloomington","MN",55437,340000,4,3,"Bloomington",2258,13503,1965,1,151,NA,"Active","December-15-2018 01:30 PM","December-15-2018 03:30 PM","http://www.redfin.com/MN/Minneapolis/10040-Irwin-Cir-55437/home/51399405","NORTHSTARMLS","5130964","N","Y",44.82297,-93.3338799,2018-12-14
"37","MLS Listing",NA,"Single Family Residential","4532 42nd Ave S","Minneapolis","MN",55406,229900,2,1,"Hiawatha",874,5227,1916,1,263,NA,"Active","December-16-2018 01:00 PM","December-16-2018 02:30 PM","http://www.redfin.com/MN/Minneapolis/4532-42nd-Ave-S-55406/home/51316337","NORTHSTARMLS","5130844","N","Y",44.9205481,-93.2130643,2018-12-14
"38","MLS Listing",NA,"Single Family Residential","8114 Bryant Ave S","Bloomington","MN",55420,319000,4,2,"Bloomington",1824,10454,1953,1,175,NA,"Active","December-15-2018 11:30 AM","December-15-2018 04:00 PM","http://www.redfin.com/MN/Minneapolis/8114-Bryant-Ave-S-55420/home/51291022","NORTHSTARMLS","5130956","N","Y",44.8564099,-93.2913729,2018-12-14
"39","MLS Listing",NA,"Single Family Residential","3638 Mckinley St NE","Minneapolis","MN",55418,250000,3,2,"Waite Park",1692,6098,1966,1,148,NA,"Active","December-16-2018 11:00 AM","December-16-2018 01:00 PM","http://www.redfin.com/MN/Minneapolis/3638-NE-McKinley-St-55418/home/51276050","NORTHSTARMLS","5130266","N","Y",45.0348705,-93.2285283,2018-12-14
"40","MLS Listing",NA,"Single Family Residential","2226 N 6th St","Minneapolis","MN",55411,159900,3,1,"Hawthorne",1284,3920,1914,1,125,NA,"Active",NA,NA,"http://www.redfin.com/MN/Minneapolis/2226-N-6th-St-55411/home/51377505","NORTHSTARMLS","5130716","N","Y",45.0023313,-93.2862043,2018-12-14
"41","MLS Listing",NA,"Single Family Residential","2025 Edinbrook Ct","Brooklyn Park","MN",55443,330000,3,3,"Brooklyn Park",2719,13503,1986,1,121,11,"Active",NA,NA,"http://www.redfin.com/MN/Minneapolis/2025-Edinbrook-Ct-55443/home/50191134","NORTHSTARMLS","5130296","N","Y",45.1118156,-93.3087928,2018-12-14
"42","MLS Listing",NA,"Single Family Residential","6939 12th Ave S","Richfield","MN",55423,149900,2,1,"Richfield",1202,7840,1910,1,125,NA,"Active",NA,NA,"http://www.redfin.com/MN/Minneapolis/6939-12th-Ave-S-55423/home/50055707","NORTHSTARMLS","5130893","N","Y",44.876625,-93.257564,2018-12-14
"43","MLS Listing",NA,"Multi-Family (2-4 Unit)","5540 Regent Ave N","Crystal","MN",55429,406900,8,4,"Crystal",3600,9147,1961,1,113,NA,"Active",NA,NA,"http://www.redfin.com/MN/Minneapolis/5540-Regent-Ave-N-55429/home/51297217","NORTHSTARMLS","5130868","N","Y",45.0535464,-93.3446385,2018-12-14
"44","MLS Listing",NA,"Single Family Residential","6047 Sheridan Ave S","Minneapolis","MN",55410,275000,3,2,"Armatage",1710,5662,1952,1,161,NA,"Active","December-16-2018 01:00 PM","December-16-2018 03:00 PM","http://www.redfin.com/MN/Minneapolis/6047-Sheridan-Ave-S-55410/home/50150785","NORTHSTARMLS","5130872","N","Y",44.8928182,-93.3121585,2018-12-14
"45","MLS Listing",NA,"Single Family Residential","1517 3rd St NE","Minneapolis","MN",55413,499900,4,2,"Sheridan",2208,8712,1912,1,226,NA,"Active",NA,NA,"http://www.redfin.com/MN/Minneapolis/1517-3rd-St-NE-55413/home/51370426","NORTHSTARMLS","5130816","N","Y",45.0036962,-93.2643223,2018-12-14
"46","MLS Listing",NA,"Single Family Residential","3668 Halifax Ave N","Robbinsdale","MN",55422,314900,3,3,"Robbinsdale",2237,6098,1946,1,141,NA,"Active",NA,NA,"http://www.redfin.com/MN/Minneapolis/3668-Halifax-Ave-N-55422/home/49927333","NORTHSTARMLS","5130556","N","Y",45.022276,-93.3318831,2018-12-14
"47","MLS Listing",NA,"Single Family Residential","6120 W Lake St","St. Louis Park","MN",55416,179900,2,1,"St. Louis Park",1060,5662,1941,2,170,NA,"Active",NA,NA,"http://www.redfin.com/MN/Minneapolis/6120-W-Lake-St-55416/home/51385672","NORTHSTARMLS","5130834","N","Y",44.943956,-93.357334,2018-12-14
"48","MLS Listing",NA,"Single Family Residential","4319 Cedar Lake Rd S","St. Louis Park","MN",55416,550000,3,2,"St. Louis Park",1804,23086,1947,2,305,NA,"Active","December-15-2018 12:00 PM","December-15-2018 02:00 PM","http://www.redfin.com/MN/Minneapolis/4319-Cedar-Lake-Rd-55416/home/51491643","NORTHSTARMLS","5130359","N","Y",44.9627349,-93.334436,2018-12-14
"49","MLS Listing",NA,"Single Family Residential","4259 Grimes Ave N","Robbinsdale","MN",55422,175000,2,1,"Robbinsdale",1607,6141,1950,2,109,NA,"Active",NA,NA,"http://www.redfin.com/MN/Minneapolis/4259-Grimes-Ave-N-55422/home/51309695","NORTHSTARMLS","5029050","N","Y",45.0331286,-93.3304598,2018-12-14
"50","MLS Listing",NA,"Single Family Residential","687 47th Ave NE","Columbia Heights","MN",55421,229900,3,2,"Columbia Heights",1278,8189,1964,2,180,NA,"Active",NA,NA,"http://www.redfin.com/MN/Minneapolis/687-47th-Ave-NE-55421/home/50976434","NORTHSTARMLS","5130729","N","Y",45.05387,-93.252981,2018-12-14
"51","MLS Listing",NA,"Single Family Residential","3524 Aldrich Ave S","Minneapolis","MN",55408,299900,2,1,"CARAG",1247,5227,1908,2,240,NA,"Active",NA,NA,"http://www.redfin.com/MN/Minneapolis/3524-Aldrich-Ave-S-55408/home/49891282","NORTHSTARMLS","5130769","N","Y",44.9387062,-93.2897839,2018-12-14
"52","MLS Listing",NA,"Single Family Residential","8417 32nd Ave N","Crystal","MN",55427,265000,4,2,"Crystal",1840,8058,1959,2,144,NA,"Active","December-15-2018 01:00 PM","December-15-2018 03:00 PM","http://www.redfin.com/MN/Minneapolis/8417-32nd-Ave-N-55427/home/50179553","NORTHSTARMLS","5130712","N","Y",45.0144393,-93.3875793,2018-12-14
"53","MLS Listing",NA,"Single Family Residential","5012 18th Ave S","Minneapolis","MN",55417,300000,2,1,"Hale",1234,4791,1940,2,243,NA,"Active","December-15-2018 11:00 AM","December-15-2018 01:00 PM","http://www.redfin.com/MN/Minneapolis/5012-18th-Ave-S-55417/home/51369156","NORTHSTARMLS","5130665","N","Y",44.9119905,-93.2488753,2018-12-14
"54","MLS Listing",NA,"Single Family Residential","5405 Xerxes Ave S","Minneapolis","MN",55410,629900,4,4,"Armatage",2910,4356,1924,2,216,NA,"Active","December-15-2018 11:00 AM","December-15-2018 04:00 PM","http://www.redfin.com/MN/Minneapolis/5405-Xerxes-Ave-S-55410/home/101838594","NORTHSTARMLS","5025832","N","Y",44.9049512,-93.3185575,2018-12-14
"55","MLS Listing",NA,"Single Family Residential","5407 Xerxes Ave S","Minneapolis","MN",55410,579900,4,4,"Armatage",2208,3615,1924,2,263,NA,"Active","December-15-2018 11:00 AM","December-15-2018 04:00 PM","http://www.redfin.com/MN/Minneapolis/5407-Xerxes-Ave-S-55410/home/51419711","NORTHSTARMLS","5028144","N","Y",44.904844,-93.3185417,2018-12-14
"56","MLS Listing",NA,"Single Family Residential","2809 41st Ave S","Minneapolis","MN",55406,257500,2,2,"Cooper",1192,5227,1916,2,216,NA,"Active",NA,NA,"http://www.redfin.com/MN/Minneapolis/2809-41st-Ave-S-55406/home/49901127","NORTHSTARMLS","5027727","N","Y",44.951542,-93.2137316,2018-12-14
"57","MLS Listing",NA,"Single Family Residential","8344 Aldrich Ave S","Bloomington","MN",55420,250000,3,2,"Bloomington",1580,10454,1957,2,158,NA,"Active",NA,NA,"http://www.redfin.com/MN/Minneapolis/8344-Aldrich-Ave-S-55420/home/50025865","NORTHSTARMLS","5130642","N","Y",44.8519996,-93.2901377,2018-12-14
"58","MLS Listing",NA,"Single Family Residential","9527 James Ave N","Brooklyn Park","MN",55444,288000,3,2,"Brooklyn Park",2457,10890,1988,2,117,NA,"Active",NA,NA,"http://www.redfin.com/MN/Minneapolis/9527-James-Ave-N-55444/home/51353368","NORTHSTARMLS","5130559","N","Y",45.1278388,-93.3040216,2018-12-14
"59","MLS Listing",NA,"Single Family Residential","5741 Grand Ave S","Minneapolis","MN",55419,365000,3,2,"Windom",2121,5227,1950,2,172,NA,"Active",NA,NA,"http://www.redfin.com/MN/Minneapolis/5741-Grand-Ave-S-55419/home/51434898","NORTHSTARMLS","5130027","N","Y",44.8983652,-93.2842016,2018-12-14
"60","MLS Listing",NA,"Multi-Family (2-4 Unit)","2409 Pierce St NE","Minneapolis","MN",55418,229900,4,2,"Windom Park",1372,6098,1900,2,168,NA,"Active","December-16-2018 11:00 AM","December-16-2018 01:00 PM","http://www.redfin.com/MN/Minneapolis/2409-Pierce-St-NE-55418/home/51357296","NORTHSTARMLS","5028690","N","Y",45.0126654,-93.240657,2018-12-14
"61","MLS Listing",NA,"Multi-Family (2-4 Unit)","515 Yosemite Ave N","Golden Valley","MN",55422,499900,6,4,"Golden Valley",3056,12850,1954,3,164,NA,"Active",NA,NA,"http://www.redfin.com/MN/Minneapolis/515-Yosemite-Ave-N-55422/home/51511991","NORTHSTARMLS","5130542","N","Y",44.9838224,-93.3548825,2018-12-14
"62","MLS Listing",NA,"Single Family Residential","631 Buchanan St NE","Minneapolis","MN",55413,93600,3,1,"Beltrami",1185,4791,1916,3,79,NA,"Active",NA,NA,"http://www.redfin.com/MN/Minneapolis/631-Buchanan-St-NE-55413/home/51363432","NORTHSTARMLS","5130538","N","Y",44.9960065,-93.2394517,2018-12-14
"63","MLS Listing",NA,"Single Family Residential","3437 Zane Ave N","Crystal","MN",55422,132000,4,1,"Crystal",1100,8537,1928,3,120,NA,"Active",NA,NA,"http://www.redfin.com/MN/Minneapolis/3437-Zane-Ave-N-55422/home/51431765","NORTHSTARMLS","5130535","N","Y",45.0193667,-93.3552913,2018-12-14
"64","MLS Listing",NA,"Single Family Residential","5253 N 6th St","Minneapolis","MN",55430,199900,4,1,"Lind - Bohanon",1250,4356,1926,3,160,NA,"Active",NA,NA,"http://www.redfin.com/MN/Minneapolis/5253-N-6th-St-55430/home/148448373","NORTHSTARMLS","5130294","N","Y",45.0457141,-93.2876218,2018-12-14
"65","MLS Listing",NA,"Single Family Residential","5025 Sheridan Ave S","Minneapolis","MN",55410,525000,4,2,"Fulton",2350,6098,1925,3,223,NA,"Active","December-15-2018 02:00 PM","December-15-2018 04:00 PM","http://www.redfin.com/MN/Minneapolis/5025-Sheridan-Ave-S-55410/home/50115845","NORTHSTARMLS","5130516","N","Y",44.9115977,-93.3121978,2018-12-14
"66","MLS Listing",NA,"Single Family Residential","5601 Emerson Ave S","Minneapolis","MN",55419,449000,3,2,"Kenny",2073,4791,1942,3,217,NA,"Active",NA,NA,"http://www.redfin.com/MN/Minneapolis/5601-Emerson-Ave-S-55419/home/50189744","NORTHSTARMLS","5130465","N","Y",44.901356,-93.2943445,2018-12-14
"67","MLS Listing",NA,"Single Family Residential","5712 Camden Ave N","Brooklyn Center","MN",55430,234900,4,4,"Brooklyn Center",2300,11238,1962,3,102,NA,"Active",NA,NA,"http://www.redfin.com/MN/Minneapolis/5712-N-Camden-Ave-55430/home/49940564","NORTHSTARMLS","5130454","N","Y",45.0589531,-93.2883443,2018-12-14
"68","MLS Listing",NA,"Single Family Residential","4809 3rd Ave S","Minneapolis","MN",55419,349900,4,2,"Field",1849,5227,1926,3,189,NA,"Active","December-15-2018 01:00 PM","December-15-2018 03:00 PM","http://www.redfin.com/MN/Minneapolis/4809-3rd-Ave-S-55419/home/51376090","NORTHSTARMLS","5129894","N","Y",44.9156531,-93.2726068,2018-12-14
"69","MLS Listing",NA,"Single Family Residential","5936 Upton Ave S","Minneapolis","MN",55410,259900,2,2,"Armatage",706,5227,1950,3,368,NA,"Active",NA,NA,"http://www.redfin.com/MN/Minneapolis/5936-S-Upton-Ave-55410/home/50099279","NORTHSTARMLS","5130298","N","Y",44.8950427,-93.3153248,2018-12-14
"70","MLS Listing",NA,"Single Family Residential","4249 Edinbrook Ter","Brooklyn Park","MN",55443,459900,5,4,"Brooklyn Park",5040,30056,1996,3,91,12,"Active",NA,NA,"http://www.redfin.com/MN/Brooklyn-Park/4249-Edinbrook-Ter-55443/home/51380594","NORTHSTARMLS","5130331","N","Y",45.1115032,-93.3359181,2018-12-14
"71","MLS Listing",NA,"Single Family Residential","5229 39th Ave S","Minneapolis","MN",55417,189900,2,1,"Minnehaha",816,7840,1923,3,233,NA,"Active",NA,NA,"http://www.redfin.com/MN/Minneapolis/5229-39th-Ave-S-55417/home/49903342","NORTHSTARMLS","5130307","N","Y",44.9080636,-93.2162045,2018-12-14
"72","MLS Listing",NA,"Multi-Family (2-4 Unit)","4505 2nd Ave S","Minneapolis","MN",55419,275000,4,2,"Regina",2056,5227,1900,3,134,NA,"Active",NA,NA,"http://www.redfin.com/MN/Minneapolis/4505-2nd-Ave-S-55419/home/51341737","NORTHSTARMLS","5130288","N","Y",44.9211982,-93.2737465,2018-12-14
"73","MLS Listing",NA,"Multi-Family (2-4 Unit)","2410 Colfax Ave S","Minneapolis","MN",55405,490000,6,2,"Lowry Hill East",2914,5662,1908,3,168,NA,"Active",NA,NA,"http://www.redfin.com/MN/Minneapolis/2410-Colfax-Ave-S-55405/home/51509138","NORTHSTARMLS","5130234","N","Y",44.958597,-93.292193,2018-12-14
"74","MLS Listing",NA,"Single Family Residential","7136 Newton Ave N","Brooklyn Center","MN",55430,215000,2,2,"Brooklyn Center",2142,9583,1962,3,100,NA,"Active",NA,NA,"http://www.redfin.com/MN/Minneapolis/7136-N-Newton-Ave-55430/home/50124351","NORTHSTARMLS","5023201","N","Y",45.0849449,-93.3075822,2018-12-14
"75","MLS Listing",NA,"Single Family Residential","4527 Lakeland Ave N","Robbinsdale","MN",55422,282000,4,3,"Robbinsdale",2335,6926,1953,3,121,NA,"Active",NA,NA,"http://www.redfin.com/MN/Minneapolis/4527-Lakeland-Ave-N-55422/home/51338225","NORTHSTARMLS","5130271","N","Y",45.0387276,-93.3458375,2018-12-14
"76","MLS Listing",NA,"Single Family Residential","3038 Dakota Ave S","St. Louis Park","MN",55416,374900,4,3,"St. Louis Park",2000,5662,1945,3,187,NA,"Active","December-15-2018 01:00 PM","December-15-2018 03:00 PM","http://www.redfin.com/MN/Minneapolis/3038-Dakota-Ave-S-55416/home/50139542","NORTHSTARMLS","5130263","N","Y",44.948443,-93.360928,2018-12-14
"77","MLS Listing",NA,"Single Family Residential","3421 Xylon Ave N","New Hope","MN",55427,254900,4,2,"New Hope",1809,10454,1964,3,141,NA,"Active","December-15-2018 01:00 PM","December-15-2018 02:30 PM","http://www.redfin.com/MN/Minneapolis/3421-Xylon-Ave-N-55427/home/51415250","NORTHSTARMLS","5028993","N","Y",45.019588,-93.386329,2018-12-14
"78","MLS Listing",NA,"Single Family Residential","3829 Washburn Ave S","Minneapolis","MN",55410,749900,3,2,"Linden Hills",2118,5662,1985,4,354,NA,"Active","December-16-2018 12:00 PM","December-16-2018 01:30 PM","http://www.redfin.com/MN/Minneapolis/3829-Washburn-Ave-S-55410/home/51324843","NORTHSTARMLS","5029002","N","Y",44.9329923,-93.3173112,2018-12-14
"79","MLS Listing",NA,"Single Family Residential","6280 Edgewood Ave N","Brooklyn Park","MN",55428,175000,2,1,"Brooklyn Park",612,13068,1950,4,286,NA,"Active",NA,NA,"http://www.redfin.com/MN/Minneapolis/6280-Edgewood-Ave-N-55428/home/51506591","NORTHSTARMLS","5130245","N","Y",45.068793,-93.361206,2018-12-14
"80","MLS Listing",NA,"Single Family Residential","3509 27th Ave S","Minneapolis","MN",55406,299900,4,3,"Corcoran",2407,8276,1994,4,125,NA,"Active",NA,NA,"http://www.redfin.com/MN/Minneapolis/3509-S-27th-Ave-55406/home/49957931","NORTHSTARMLS","5130242","N","Y",44.9392273,-93.2331262,2018-12-14
"81","MLS Listing",NA,"Multi-Family (2-4 Unit)","900 E Old Shakopee Rd","Bloomington","MN",55420,404900,6,6,"Bloomington",1396,14810,1970,4,290,NA,"Active",NA,NA,"http://www.redfin.com/MN/Minneapolis/900-E-Old-Shakopee-Rd-55420/home/51367420","NORTHSTARMLS","5025507","N","Y",44.8278109,-93.261351,2018-12-14
"82","MLS Listing",NA,"Single Family Residential","5048 40th Ave S","Minneapolis","MN",55417,279900,2,1,"Minnehaha",1316,7840,1913,4,213,NA,"Active","December-16-2018 12:00 PM","December-16-2018 02:00 PM","http://www.redfin.com/MN/Minneapolis/5048-40th-Ave-S-55417/home/51401007","NORTHSTARMLS","5130004","N","Y",44.9109994,-93.2155372,2018-12-14
"83","MLS Listing",NA,"Single Family Residential","4310 Girard Ave N","Minneapolis","MN",55412,214900,3,2,"Webber - Camden",1844,7840,1925,4,117,NA,"Active",NA,NA,"http://www.redfin.com/MN/Minneapolis/4310-Girard-Ave-N-55412/home/51293529","NORTHSTARMLS","5130066","N","Y",45.0336929,-93.296729,2018-12-14
"84","MLS Listing",NA,"Single Family Residential","4032 Jefferson St NE","Columbia Heights","MN",55421,165000,2,1,"Columbia Heights",1474,5488,1947,4,112,NA,"Active",NA,NA,"http://www.redfin.com/MN/Minneapolis/4032-Jefferson-St-NE-55421/home/50992529","NORTHSTARMLS","5018503","N","Y",45.041959,-93.2552888,2018-12-14
"85","MLS Listing",NA,"Single Family Residential","4429 31st Ave S","Minneapolis","MN",55406,298500,3,1,"Ericsson",1848,5662,1953,4,162,NA,"Active","December-15-2018 11:00 AM","December-15-2018 01:00 PM","http://www.redfin.com/MN/Minneapolis/4429-S-31st-Ave-55406/home/49928819","NORTHSTARMLS","5029188","N","Y",44.9223687,-93.2267456,2018-12-14
"86","MLS Listing",NA,"Single Family Residential","5124 W 104th St","Bloomington","MN",55437,400000,4,3,"Bloomington",2209,13068,1970,4,181,NA,"Active",NA,NA,"http://www.redfin.com/MN/Minneapolis/5124-W-104th-St-55437/home/51409568","NORTHSTARMLS","5129967","N","Y",44.8143191,-93.3471172,2018-12-14
"87","MLS Listing",NA,"Single Family Residential","6812 Washburn Ave S","Richfield","MN",55423,239900,3,1,"Richfield",1456,6534,1948,4,165,NA,"Active","December-15-2018 01:00 PM","December-15-2018 03:00 PM","http://www.redfin.com/MN/Minneapolis/6812-Washburn-Ave-S-55423/home/51476142","NORTHSTARMLS","5029009","N","Y",44.8794031,-93.3177946,2018-12-14
"88","MLS Listing",NA,"Single Family Residential","7339 13th Ave S","Richfield","MN",55423,249900,3,2,"Richfield",1882,8450,1955,4,133,NA,"Active",NA,NA,"http://www.redfin.com/MN/Minneapolis/7339-13th-Ave-S-55423/home/51520797","NORTHSTARMLS","5129947","N","Y",44.869698,-93.256357,2018-12-14
"89","MLS Listing",NA,"Multi-Family (2-4 Unit)","1108 25th Ave SE","Minneapolis","MN",55414,199000,4,2,"Como",1680,NA,1900,4,118,NA,"Active",NA,NA,"http://www.redfin.com/MN/Minneapolis/1108-25th-Ave-SE-55414/home/50198452","NORTHSTARMLS","5029178","N","Y",44.9913047,-93.2174268,2018-12-14
"90","MLS Listing",NA,"Single Family Residential","5524 James Ave S","Minneapolis","MN",55419,348000,3,2,"Kenny",1669,6098,1951,5,209,NA,"Active","December-16-2018 02:00 PM","December-16-2018 04:00 PM","http://www.redfin.com/MN/Minneapolis/5524-James-Ave-S-55419/home/50193891","NORTHSTARMLS","5017153","N","Y",44.902359,-93.3013042,2018-12-14
"91","MLS Listing",NA,"Single Family Residential","5101 Camden Ave N","Minneapolis","MN",55430,204000,3,1,"Lind - Bohanon",1415,4356,1947,5,144,NA,"Active",NA,NA,"http://www.redfin.com/MN/Minneapolis/5101-N-Camden-Ave-55430/home/51359720","NORTHSTARMLS","5028023","N","Y",45.0476681,-93.2892386,2018-12-14
"92","MLS Listing",NA,"Single Family Residential","4632 Sumter Ave N","New Hope","MN",55428,269900,4,3,"New Hope",2075,9975,1958,5,130,NA,"Active",NA,NA,"http://www.redfin.com/MN/New-Hope/4632-Sumter-Ave-N-55428/home/51331865","NORTHSTARMLS","5129925","N","Y",45.0392734,-93.3787576,2018-12-14
"93","MLS Listing",NA,"Single Family Residential","5128 Vincent Ave S","Minneapolis","MN",55410,825000,4,4,"Fulton",3473,5227,2017,5,238,NA,"Active",NA,NA,"http://www.redfin.com/MN/Minneapolis/5128-Vincent-Ave-S-55410/home/51391813","NORTHSTARMLS","5129903","N","Y",44.9097212,-93.3165639,2018-12-14
"94","MLS Listing",NA,"Multi-Family (2-4 Unit)","2820 12th Ave S","Minneapolis","MN",55407,469999,8,4,"Midtown Phillips",4320,8276,1916,5,109,NA,"Active",NA,NA,"http://www.redfin.com/MN/Minneapolis/2820-12th-Ave-S-55407/home/51522524","NORTHSTARMLS","5028007","N","Y",44.9511509,-93.2578519,2018-12-14
"95","MLS Listing",NA,"Single Family Residential","3119 Utah Ave S","St. Louis Park","MN",55426,299900,3,1,"St. Louis Park",1240,6534,1951,5,242,NA,"Active",NA,NA,"http://www.redfin.com/MN/Minneapolis/3119-Utah-Ave-S-55426/home/49998665","NORTHSTARMLS","5129901","N","Y",44.9468092,-93.3818651,2018-12-14
"96","MLS Listing",NA,"Single Family Residential","6006 Dupont Ave N","Brooklyn Center","MN",55430,209900,3,2,"Brooklyn Center",1455,1132,1954,5,144,NA,"Active","December-15-2018 01:00 PM","December-15-2018 04:00 PM","http://www.redfin.com/MN/Minneapolis/6006-Dupont-Ave-55430/home/51278809","NORTHSTARMLS","5028316","N","Y",45.0642079,-93.2933256,2018-12-14
"97","MLS Listing",NA,"Single Family Residential","5229 Welcome Ave N","Crystal","MN",55429,274900,4,2,"Crystal",2015,11238,1985,5,136,NA,"Active",NA,NA,"http://www.redfin.com/MN/Minneapolis/5229-Welcome-Ave-N-55429/home/51337355","NORTHSTARMLS","5129881","N","Y",45.048614,-93.351065,2018-12-14
"98","MLS Listing",NA,"Single Family Residential","1800 Humboldt Ave S","Minneapolis","MN",55403,849900,5,4,"Lowry Hill",4138,6534,1899,6,205,NA,"Active",NA,NA,"http://www.redfin.com/MN/Minneapolis/1800-Humboldt-Ave-S-55403/home/51469942","NORTHSTARMLS","4983044","N","Y",44.9652892,-93.2984673,2018-12-14
"99","MLS Listing",NA,"Single Family Residential","3209 Kentucky Ave S","St. Louis Park","MN",55426,365000,3,2,"St. Louis Park",2108,6534,1947,6,173,NA,"Active","December-16-2018 12:00 PM","December-16-2018 02:00 PM","http://www.redfin.com/MN/Minneapolis/3209-Kentucky-Ave-S-55426/home/49944989","NORTHSTARMLS","5028927","N","Y",44.9455109,-93.369105,2018-12-14
"100","MLS Listing",NA,"Single Family Residential","7648 Aldrich Ave N","Brooklyn Park","MN",55444,209900,2,1,"Brooklyn Park",1079,7405,1983,6,195,NA,"Active",NA,NA,"http://www.redfin.com/MN/Minneapolis/7648-Aldrich-Ave-N-55444/home/49966506","NORTHSTARMLS","5129839","N","Y",45.0939065,-93.2917045,2018-12-14
"101","MLS Listing",NA,"Single Family Residential","1522 Hillside Ave N","Minneapolis","MN",55411,425000,5,3,"Jordan",2765,9583,1884,6,154,NA,"Active",NA,NA,"http://www.redfin.com/MN/Minneapolis/1522-Hillside-Ave-N-55411/home/50203260","NORTHSTARMLS","5129854","N","Y",45.0007001,-93.2998052,2018-12-14
"102","MLS Listing",NA,"Single Family Residential","5641 45th Ave S","Minneapolis","MN",55417,175000,1,2,"Morris Park",986,5227,1925,6,177,NA,"Active","December-16-2018 12:00 PM","December-16-2018 01:30 PM","http://www.redfin.com/MN/Minneapolis/5641-45th-Ave-S-55417/home/50038483","NORTHSTARMLS","5026940","N","Y",44.9005483,-93.2085112,2018-12-14
"103","MLS Listing",NA,"Single Family Residential","3245 Stinson Blvd Unit N","St. Anthony","MN",55418,165000,1,1,"St. Anthony",650,7492,1935,6,254,NA,"Active",NA,NA,"http://www.redfin.com/MN/Minneapolis/3245-NE-Stinson-Blvd-55418/unit-N/home/148439457","NORTHSTARMLS","5129846","N","Y",45.0273228,-93.2266233,2018-12-14
"104","MLS Listing",NA,"Single Family Residential","3521 Lee Ave N","Crystal","MN",55422,224900,4,2,"Crystal",1812,6403,1960,6,124,NA,"Active","December-15-2018 02:00 PM","December-15-2018 04:00 PM","http://www.redfin.com/MN/Minneapolis/3521-Lee-Ave-N-55422/home/51318920","NORTHSTARMLS","5029016","N","Y",45.01939,-93.3366099,2018-12-14
"105","MLS Listing",NA,"Single Family Residential","11025 Cavell Cir","Bloomington","MN",55438,699900,3,3,"Bloomington",3516,40510,1999,6,199,NA,"Active",NA,NA,"http://www.redfin.com/MN/Minneapolis/11025-Cavell-Cir-55438/home/50126586","NORTHSTARMLS","5029212","N","Y",44.8050878,-93.3955627,2018-12-14
"106","MLS Listing",NA,"Single Family Residential","1909 Sugarloaf Trl N","Brooklyn Park","MN",55444,209000,3,1,"Brooklyn Park",1000,10454,1962,6,209,NA,"Active","December-14-2018 04:00 PM","December-14-2018 06:00 PM","http://www.redfin.com/MN/Minneapolis/1909-Sugarloaf-Trl-55444/home/51444906","NORTHSTARMLS","5037073","N","Y",45.0956158,-93.3059319,2018-12-14
"107","MLS Listing",NA,"Single Family Residential","7060 Drew Ave N","Brooklyn Center","MN",55429,209900,3,2,"Brooklyn Center",1400,9757,1957,7,150,NA,"Active",NA,NA,"http://www.redfin.com/MN/Minneapolis/7060-Drew-Ave-N-55429/home/50048263","NORTHSTARMLS","5029215","N","Y",45.0843431,-93.329284,2018-12-14
"108","MLS Listing",NA,"Single Family Residential","2664 Inglewood Ave S","St. Louis Park","MN",55416,585000,4,3,"St. Louis Park",2302,5227,1938,7,254,NA,"Active","December-15-2018 12:00 PM","December-15-2018 02:00 PM","http://www.redfin.com/MN/Minneapolis/2664-Inglewood-Ave-S-55416/home/49974205","NORTHSTARMLS","5027770","N","Y",44.9539254,-93.3329358,2018-12-14
"109","MLS Listing",NA,"Single Family Residential","3406 Bryant Ave N","Minneapolis","MN",55412,180000,3,2,"McKinley",1314,5662,2017,7,137,NA,"Active",NA,NA,"http://www.redfin.com/MN/Minneapolis/3406-Bryant-Ave-N-55412/home/51333483","NORTHSTARMLS","5028765","N","Y",45.016995,-93.29018,2018-12-14
"110","MLS Listing",NA,"Single Family Residential","824 85th Ave N","Brooklyn Park","MN",55444,249900,3,2,"Brooklyn Park",1879,13503,1972,7,133,NA,"Active",NA,NA,"http://www.redfin.com/MN/Minneapolis/824-85th-Ave-N-55444/home/49979088","NORTHSTARMLS","5029165","N","Y",45.1089393,-93.2931765,2018-12-14
"111","MLS Listing",NA,"Single Family Residential","10725 Rhode Island Ave N","Brooklyn Park","MN",55445,355900,3,2,"Brooklyn Park",1995,7840,2019,7,178,62,"Active",NA,NA,"http://www.redfin.com/MN/Brooklyn-Park/10725-Rhode-Island-Ave-N-55445/home/146867264","NORTHSTARMLS","5029135","N","Y",45.145805000004,-93.378770000466,2018-12-14
"112","MLS Listing",NA,"Single Family Residential","7425 74th Ave N","Brooklyn Park","MN",55428,219900,3,2,"Brooklyn Park",1538,8712,1981,7,143,NA,"Active",NA,NA,"http://www.redfin.com/MN/Minneapolis/7425-74th-Ave-N-55428/home/51480646","NORTHSTARMLS","5029108","N","Y",45.0881643,-93.3759498,2018-12-14
"113","MLS Listing",NA,"Single Family Residential","1846 Parker Rd","St. Louis Park","MN",55426,299900,3,2,"St. Louis Park",1773,8276,1957,7,169,NA,"Active","December-15-2018 01:00 PM","December-15-2018 03:00 PM","http://www.redfin.com/MN/Minneapolis/1846-Parker-Rd-55426/home/51278450","NORTHSTARMLS","5028233","N","Y",44.9643524,-93.4030272,2018-12-14
"114","MLS Listing",NA,"Single Family Residential","2011 Drew Ave S","Minneapolis","MN",55416,625000,4,3,"Bryn - Mawr",2437,6054,1954,7,256,NA,"Active","December-15-2018 12:00 PM","December-15-2018 02:00 PM","http://www.redfin.com/MN/Minneapolis/2011-Drew-Ave-S-55416/home/51501315","NORTHSTARMLS","5014624","N","Y",44.9623661,-93.325823,2018-12-14
"115","MLS Listing",NA,"Single Family Residential","7326 W 114th Street Cir","Bloomington","MN",55438,574900,5,4,"Bloomington",4051,16552,1985,7,142,NA,"Active","December-15-2018 01:00 PM","December-15-2018 03:00 PM","http://www.redfin.com/MN/Minneapolis/7326-W-114th-St-Cir-55438/home/51311154","NORTHSTARMLS","5029053","N","Y",44.799661,-93.3798429,2018-12-14
"116","MLS Listing",NA,"Single Family Residential","5356 Columbus Ave","Minneapolis","MN",55417,549900,3,3,"Page",2238,4791,2017,7,246,NA,"Active","December-15-2018 01:00 PM","December-15-2018 03:00 PM","http://www.redfin.com/MN/Minneapolis/5356-Columbus-Ave-55417/home/51369311","NORTHSTARMLS","5027440","N","Y",44.9053923,-93.2641973,2018-12-14
"117","MLS Listing",NA,"Single Family Residential","6273 Rhode Island Ave N","Brooklyn Park","MN",55428,234900,3,2,"Brooklyn Park",1549,13503,1957,7,152,NA,"Active",NA,NA,"http://www.redfin.com/MN/Minneapolis/6273-Rhode-Island-Ave-N-55428/home/51506339","NORTHSTARMLS","5028342","N","Y",45.068545,-93.3783928,2018-12-14
"118","MLS Listing",NA,"Single Family Residential","4211 Russell Ave N","Minneapolis","MN",55412,264900,4,2,"Victory",1687,5227,1939,7,157,NA,"Active",NA,NA,"http://www.redfin.com/MN/Minneapolis/4211-Russell-Ave-N-55412/home/51299084","NORTHSTARMLS","5028916","N","Y",45.0316659,-93.3113295,2018-12-14
"119","MLS Listing",NA,"Single Family Residential","2325 Parklands Rd","St. Louis Park","MN",55416,1425000,5,6,"St. Louis Park",6528,33105,2006,7,218,NA,"Active","December-15-2018 12:00 PM","December-15-2018 02:00 PM","http://www.redfin.com/MN/Minneapolis/2325-Parklands-Rd-55416/home/49895782","NORTHSTARMLS","5028756","N","Y",44.959652,-93.3361089,2018-12-14
"120","MLS Listing",NA,"Single Family Residential","3241 32nd Ave S","Minneapolis","MN",55406,574900,4,4,"Longfellow",3050,5662,2019,8,188,NA,"Active",NA,NA,"http://www.redfin.com/MN/Minneapolis/3241-S-32nd-Ave-55406/home/51306561","NORTHSTARMLS","5028901","N","Y",44.9436713,-93.2254303,2018-12-14
"121","MLS Listing",NA,"Single Family Residential","5952 Oliver Ave S","Minneapolis","MN",55419,485000,4,3,"Armatage",2190,6098,1950,8,221,NA,"Active","December-16-2018 01:00 PM","December-16-2018 03:00 PM","http://www.redfin.com/MN/Minneapolis/5952-Oliver-Ave-S-55419/home/50001355","NORTHSTARMLS","5025589","N","Y",44.8949227,-93.3076975,2018-12-14
"122","MLS Listing",NA,"Single Family Residential","4224 Washington St NE","Columbia Heights","MN",55421,175000,3,1,"Columbia Heights",952,6229,1956,8,184,NA,"Active",NA,NA,"http://www.redfin.com/MN/Minneapolis/4224-Washington-St-NE-55421/home/50991634","NORTHSTARMLS","5024647","N","Y",45.0453861,-93.2567065,2018-12-14
"123","MLS Listing",NA,"Single Family Residential","5827 Ewing Ave N","Brooklyn Center","MN",55429,239900,5,3,"Brooklyn Center",2000,13895,1959,8,120,NA,"Active",NA,NA,"http://www.redfin.com/MN/Minneapolis/5827-Ewing-Ave-N-55429/home/51290008","NORTHSTARMLS","5023273","N","Y",45.0612294,-93.3284989,2018-12-14
"124","MLS Listing",NA,"Single Family Residential","2616 Kentucky Ave S","St. Louis Park","MN",55426,235000,3,1,"St. Louis Park",1080,6534,1951,8,218,NA,"Active","December-15-2018 01:30 PM","December-15-2018 03:00 PM","http://www.redfin.com/MN/Minneapolis/2616-Kentucky-Ave-S-55426/home/51330401","NORTHSTARMLS","5024733","N","Y",44.956142,-93.370034,2018-12-14
"125","MLS Listing",NA,"Multi-Family (2-4 Unit)","3624 Columbus Ave","Minneapolis","MN",55407,389000,6,3,"Central",2712,4791,1954,8,143,NA,"Active",NA,NA,"http://www.redfin.com/MN/Minneapolis/3624-Columbus-Ave-55407/home/50140536","NORTHSTARMLS","5028036","N","Y",44.936924,-93.264132,2018-12-14
"126","MLS Listing",NA,"Single Family Residential","5006 Vera Cruz","Crystal","MN",55429,333500,5,3,"Crystal",2222,8712,2019,8,150,NA,"Active",NA,NA,"http://www.redfin.com/MN/Crystal/5006-Vera-Cruz-Ave-N-55429/home/148434693","NORTHSTARMLS","5028738","N","Y",45.0449887,-93.3497096,2018-12-14
"127","MLS Listing",NA,"Single Family Residential","7445 Nicollet Ave","Richfield","MN",55423,239900,3,2,"Richfield",1988,8232,1946,8,121,NA,"Active","December-15-2018 01:00 PM","December-15-2018 03:00 PM","http://www.redfin.com/MN/Minneapolis/7445-Nicollet-Ave-55423/home/51515961","NORTHSTARMLS","5026810","N","Y",44.867477,-93.277826,2018-12-14
"128","MLS Listing",NA,"Single Family Residential","3506 Colfax Ave N","Minneapolis","MN",55412,209900,3,2,"McKinley",1200,5662,1906,8,175,NA,"Active","December-15-2018 12:00 PM","December-15-2018 02:00 PM","http://www.redfin.com/MN/Minneapolis/3506-Colfax-Ave-N-55412/home/51333516","NORTHSTARMLS","5028609","N","Y",45.0188089,-93.2915755,2018-12-14
"129","MLS Listing",NA,"Multi-Family (2-4 Unit)","1915 Sharon Ave SE","Minneapolis","MN",55414,499500,8,5,"Prospect Park - East River Road",3475,10890,1956,8,144,NA,"Active",NA,NA,"http://www.redfin.com/MN/Minneapolis/1915-Sharon-Ave-SE-55414/home/50205121","NORTHSTARMLS","5028162","N","Y",44.9628821,-93.2120667,2018-12-14
"130","MLS Listing",NA,"Single Family Residential","5600 Regent Ave N","Crystal","MN",55429,209900,3,2,"Crystal",1769,7318,1979,8,119,NA,"Active",NA,NA,"http://www.redfin.com/MN/Minneapolis/5600-Regent-Ave-N-55429/home/49918025","NORTHSTARMLS","5028338","N","Y",45.0540242,-93.3446605,2018-12-14
"131","MLS Listing",NA,"Multi-Family (2-4 Unit)","3400 Girard Ave S","Minneapolis","MN",55408,550000,5,2,"CARAG",2170,3920,1900,8,253,NA,"Active",NA,NA,"http://www.redfin.com/MN/Minneapolis/3400-Girard-Ave-S-55408/home/51292931","NORTHSTARMLS","5028603","N","Y",44.9411456,-93.2974507,2018-12-14
"132","MLS Listing",NA,"Multi-Family (2-4 Unit)","3924 Van Nest Ave","Minneapolis","MN",55409,325000,3,2,"King Field",1560,3484,1916,8,208,NA,"Active",NA,NA,"http://www.redfin.com/MN/Minneapolis/3924-Van-Nest-Ave-55409/home/51340186","NORTHSTARMLS","5028597","N","Y",44.931506,-93.2790917,2018-12-14
"133","MLS Listing",NA,"Single Family Residential","4300 71st Ave N","Brooklyn Center","MN",55429,219900,3,3,"Brooklyn Center",1923,11456,1960,9,114,NA,"Active",NA,NA,"http://www.redfin.com/MN/Minneapolis/4300-71st-Ave-N-55429/home/50179165","NORTHSTARMLS","5026799","N","Y",45.084351,-93.3365411,2018-12-14
"134","MLS Listing",NA,"Single Family Residential","3210 Benjamin St NE","Minneapolis","MN",55418,254900,3,1,"Waite Park",1351,5227,1942,9,189,NA,"Active","December-15-2018 11:00 AM","December-15-2018 02:00 PM","http://www.redfin.com/MN/Minneapolis/3210-NE-Benjamin-St-55418/home/51277489","NORTHSTARMLS","5022540","N","Y",45.0262608,-93.2297681,2018-12-14
"135","MLS Listing",NA,"Single Family Residential","5821 Columbus Ave","Minneapolis","MN",55417,649900,4,3,"Diamond Lake",3606,6969,1942,9,180,NA,"Active",NA,NA,"http://www.redfin.com/MN/Minneapolis/5821-Columbus-Ave-55417/home/51440188","NORTHSTARMLS","5028429","N","Y",44.8970897,-93.2637651,2018-12-14
"136","MLS Listing",NA,"Single Family Residential","3831 Vincent Ave N","Minneapolis","MN",55412,260000,3,1,"Victory",553,5227,1926,9,470,NA,"Active",NA,NA,"http://www.redfin.com/MN/Minneapolis/3831-Vincent-Ave-N-55412/home/51300248","NORTHSTARMLS","5028576","N","Y",45.0250646,-93.3162621,2018-12-14
"137","MLS Listing",NA,"Single Family Residential","3316 Welcome Ave N","Crystal","MN",55422,229900,3,2,"Crystal",1820,8189,1959,9,126,NA,"Active","December-16-2018 12:30 PM","December-16-2018 02:30 PM","http://www.redfin.com/MN/Minneapolis/3316-Welcome-Ave-N-55422/home/51431559","NORTHSTARMLS","5028575","N","Y",45.0169056,-93.350886,2018-12-14
"138","MLS Listing",NA,"Single Family Residential","3219 Central Ave NE","Minneapolis","MN",55418,229900,2,2,"Waite Park",1344,4791,1926,9,171,NA,"Active",NA,NA,"http://www.redfin.com/MN/Minneapolis/3219-Central-Ave-NE-55418/home/51276910","NORTHSTARMLS","5028252","N","Y",45.0263935,-93.2470009,2018-12-14
"139","MLS Listing",NA,"Single Family Residential","4261 Browndale Ave","St. Louis Park","MN",55416,525000,4,3,"St. Louis Park",1896,10454,1939,9,277,NA,"Active",NA,NA,"http://www.redfin.com/MN/Minneapolis/4261-Browndale-Ave-55416/home/51317758","NORTHSTARMLS","5028503","N","Y",44.92354,-93.3439439,2018-12-14
"140","MLS Listing",NA,"Single Family Residential","4616 14th Ave S","Minneapolis","MN",55407,399900,3,2,"Northrop",1856,5662,1926,9,215,NA,"Active",NA,NA,"http://www.redfin.com/MN/Minneapolis/4616-14th-Ave-S-55407/home/51368133","NORTHSTARMLS","5028462","N","Y",44.9191013,-93.2552393,2018-12-14
"141","MLS Listing",NA,"Multi-Family (2-4 Unit)","3706 Penn Ave N","Minneapolis","MN",55412,275000,7,4,"Folwell",2808,5227,1925,9,98,NA,"Active",NA,NA,"http://www.redfin.com/MN/Minneapolis/3706-Penn-Ave-N-55412/home/51294006","NORTHSTARMLS","5028099","N","Y",45.0225315,-93.3079788,2018-12-14
"142","MLS Listing",NA,"Single Family Residential","1421 Idaho Ave S","St. Louis Park","MN",55426,469900,5,4,"St. Louis Park",2834,5227,2017,9,166,NA,"Active",NA,NA,"http://www.redfin.com/MN/Minneapolis/1421-Idaho-Ave-S-55426/home/50168466","NORTHSTARMLS","5028437","N","Y",44.96858,-93.366585,2018-12-14
"143","MLS Listing",NA,"Single Family Residential","1505 Jersey Ave N","Golden Valley","MN",55427,274900,4,2,"Golden Valley",2196,6098,1946,9,125,NA,"Active","December-15-2018 12:00 PM","December-15-2018 02:00 PM","http://www.redfin.com/MN/Minneapolis/1505-Jersey-Ave-N-55427/home/49889113","NORTHSTARMLS","5020740","N","Y",44.9951778,-93.3679647,2018-12-14
"144","MLS Listing",NA,"Single Family Residential","5325 Knox Ave N","Brooklyn Center","MN",55430,169900,3,1,"Brooklyn Center",1100,5793,1950,9,154,NA,"Active",NA,NA,"http://www.redfin.com/MN/Minneapolis/5325-Knox-Ave-N-55430/home/50127972","NORTHSTARMLS","5028372","N","Y",45.052025,-93.303336,2018-12-14
"145","MLS Listing",NA,"Single Family Residential","4406 Wentworth Ave","Minneapolis","MN",55419,329999,3,1,"King Field",1560,5227,1908,9,212,NA,"Active","December-16-2018 12:00 PM","December-16-2018 02:00 PM","http://www.redfin.com/MN/Minneapolis/4406-Wentworth-Ave-55419/home/51341268","NORTHSTARMLS","5028320","N","Y",44.92289,-93.2808605,2018-12-14
"146","MLS Listing",NA,"Single Family Residential","3618 Bryant Ave N","Minneapolis","MN",55412,154900,3,2,"McKinley",1344,4791,1907,9,115,NA,"Active",NA,NA,"http://www.redfin.com/MN/Minneapolis/3618-Bryant-Ave-N-55412/home/51294596","NORTHSTARMLS","5003185","N","Y",45.0209245,-93.2903167,2018-12-14
"147","MLS Listing",NA,"Single Family Residential","6336 Perry Ave N","Brooklyn Center","MN",55429,194900,2,2,"Brooklyn Center",958,10062,1959,9,203,NA,"Active",NA,NA,"http://www.redfin.com/MN/Minneapolis/6336-Perry-Ave-N-55429/home/51513715","NORTHSTARMLS","5023371","N","Y",45.0710327,-93.3423095,2018-12-14
"148","MLS Listing",NA,"Single Family Residential","5321 Logan Ave S","Minneapolis","MN",55419,475000,3,3,"Lynnhurst",1889,5227,1947,10,251,NA,"Active",NA,NA,"http://www.redfin.com/MN/Minneapolis/5321-Logan-Ave-S-55419/home/49887616","NORTHSTARMLS","5020435","N","Y",44.9062417,-93.303231,2018-12-14
"149","MLS Listing",NA,"Single Family Residential","3536 Silver Lake Rd NE","St. Anthony","MN",55418,234900,3,2,"St. Anthony",1350,7884,1921,10,174,NA,"Active",NA,NA,"http://www.redfin.com/MN/Minneapolis/3536-Silver-Lake-Rd-NE-55418/home/51308963","NORTHSTARMLS","5028300","N","Y",45.0329024,-93.2185207,2018-12-14
"150","MLS Listing",NA,"Single Family Residential","4007 Fremont Ave N","Minneapolis","MN",55412,121600,4,1,"Webber - Camden",1834,6098,1926,10,66,NA,"Active",NA,NA,"http://www.redfin.com/MN/Minneapolis/4007-Fremont-Ave-N-55412/home/51293343","NORTHSTARMLS","5028290","N","Y",45.0279477,-93.2960276,2018-12-14
"151","MLS Listing",NA,"Single Family Residential","2316 California St NE","Minneapolis","MN",55418,259900,4,1,"Bottineau",1440,4791,1957,10,180,NA,"Active",NA,NA,"http://www.redfin.com/MN/Minneapolis/2316-California-St-NE-55418/home/49979454","NORTHSTARMLS","5028165","N","Y",45.0116094,-93.2691357,2018-12-14
"152","MLS Listing",NA,"Single Family Residential","1615 Upton Ave N","Minneapolis","MN",55411,127200,3,1,"Willard - Hay",1322,5662,1927,10,96,NA,"Active",NA,NA,"http://www.redfin.com/MN/Minneapolis/1615-Upton-Ave-N-55411/home/51392815","NORTHSTARMLS","5028140","N","Y",44.9957231,-93.3149383,2018-12-14
"153","MLS Listing",NA,"Single Family Residential","5203 109th Ave N","Brooklyn Park","MN",55443,339900,4,3,"Brooklyn Park",2464,14374,2004,10,138,9,"Active","December-15-2018 01:00 PM","December-15-2018 03:00 PM","http://www.redfin.com/MN/Brooklyn-Park/5203-109th-Ave-N-55443/home/145395637","NORTHSTARMLS","5026540","N","Y",45.151451,-93.346913,2018-12-14
"154","MLS Listing",NA,"Single Family Residential","6310 W 33rd St","St. Louis Park","MN",55416,299900,2,2,"St. Louis Park",1768,8276,1925,10,170,NA,"Active",NA,NA,"http://www.redfin.com/MN/Minneapolis/6310-W-33rd-St-55416/home/51385646","NORTHSTARMLS","5028043","N","Y",44.9447649,-93.359622,2018-12-14
"155","MLS Listing",NA,"Single Family Residential","731 E 43rd St","Minneapolis","MN",55407,189900,3,1,"Regina",1080,1742,1907,10,176,NA,"Active","December-15-2018 01:00 PM","December-15-2018 02:30 PM","http://www.redfin.com/MN/Minneapolis/731-E-43rd-St-55407/home/50169161","NORTHSTARMLS","5028114","N","Y",44.9250016,-93.2630971,2018-12-14
"156","MLS Listing",NA,"Single Family Residential","7725 Drew Ave N","Brooklyn Park","MN",55443,254900,4,2,"Brooklyn Park",1918,10759,1978,10,133,NA,"Active",NA,NA,"http://www.redfin.com/MN/Minneapolis/7725-Drew-Ave-N-55443/home/51438045","NORTHSTARMLS","5027664","N","Y",45.0962308,-93.3288428,2018-12-14
"157","MLS Listing",NA,"Single Family Residential","6932 Edgewood Ave N","Brooklyn Park","MN",55428,209900,3,2,"Brooklyn Park",1656,14374,1958,11,127,NA,"Active",NA,NA,"http://www.redfin.com/MN/Minneapolis/6932-Edgewood-Ave-N-55428/home/51481075","NORTHSTARMLS","5026017","N","Y",45.0814561,-93.3627528,2018-12-14
"158","MLS Listing",NA,"Single Family Residential","3121 Dakota Ave S","St. Louis Park","MN",55416,379900,3,2,"St. Louis Park",2025,6969,1947,11,188,NA,"Active",NA,NA,"http://www.redfin.com/MN/Minneapolis/3121-Dakota-Ave-S-55416/home/51385538","NORTHSTARMLS","5027579","N","Y",44.947422,-93.360113,2018-12-14
"159","MLS Listing",NA,"Multi-Family (2-4 Unit)","3474 3rd St NE","Minneapolis","MN",55418,219900,3,2,"Columbia Park",1400,4791,1900,11,157,NA,"Active",NA,NA,"http://www.redfin.com/MN/Minneapolis/3474-3rd-St-NE-55418/home/51284489","NORTHSTARMLS","5027919","N","Y",45.0315979,-93.2641475,2018-12-14
"160","MLS Listing",NA,"Single Family Residential","3530 Knox Ave N","Minneapolis","MN",55412,165000,3,2,"Folwell",1476,5227,1926,11,112,NA,"Active",NA,NA,"http://www.redfin.com/MN/Minneapolis/3530-N-Knox-Ave-55412/home/51334095","NORTHSTARMLS","5027934","N","Y",45.0195292,-93.3015871,2018-12-14
"161","MLS Listing",NA,"Single Family Residential","9120 Cambridge Ave N","Brooklyn Park","MN",55443,349900,6,4,"Brooklyn Park",3048,9583,1992,11,115,6,"Active",NA,NA,"http://www.redfin.com/MN/Minneapolis/9120-Cambridge-Ave-55443/home/50142458","NORTHSTARMLS","5027840","N","Y",45.1196133,-93.3260665,2018-12-14
"162","MLS Listing",NA,"Single Family Residential","8327 Northern Dr","Crystal","MN",55427,185000,3,2,"Crystal",1170,8407,1971,11,158,NA,"Active",NA,NA,"http://www.redfin.com/MN/Minneapolis/8327-Northern-Dr-55427/home/51416411","NORTHSTARMLS","4978545","N","Y",45.0136319,-93.3865266,2018-12-14
"163","MLS Listing",NA,"Single Family Residential","3235 Ulysses St NE","Minneapolis","MN",55418,319900,3,2,"Waite Park",1566,5227,1950,11,204,NA,"Active",NA,NA,"http://www.redfin.com/MN/Minneapolis/3235-Ulysses-St-NE-55418/home/51277512","NORTHSTARMLS","5027877","N","Y",45.0268821,-93.2355439,2018-12-14
"164","MLS Listing",NA,"Single Family Residential","625 36 1/2 Ave NE","Minneapolis","MN",55418,249000,4,2,"Columbia Park",1700,6098,1953,11,146,NA,"Active","December-16-2018 11:00 AM","December-16-2018 01:00 PM","http://www.redfin.com/MN/Minneapolis/625-36th-1-2-Ave-NE-55418/home/51283853","NORTHSTARMLS","5027890","N","Y",45.0348617,-93.2552521,2018-12-14
"165","MLS Listing",NA,"Single Family Residential","9020 W 31st St","St. Louis Park","MN",55426,299900,4,2,"St. Louis Park",2349,11325,1947,11,128,NA,"Active",NA,NA,"http://www.redfin.com/MN/Minneapolis/9020-W-31st-St-55426/home/51404742","NORTHSTARMLS","5007987","N","Y",44.9473248,-93.3939183,2018-12-14
"166","MLS Listing",NA,"Single Family Residential","5349 Fremont Ave S","Minneapolis","MN",55419,400000,3,2,"Lynnhurst",1952,5227,1968,11,205,NA,"Active",NA,NA,"http://www.redfin.com/MN/Minneapolis/5349-Fremont-Ave-S-55419/home/51383628","NORTHSTARMLS","5027371","N","Y",44.9054759,-93.295642,2018-12-14
"167","MLS Listing",NA,"Single Family Residential","350 Manor Dr NE","Spring Lake Park","MN",55432,214900,4,4,"Spring Lake Park",1860,10018,1963,11,116,NA,"Active",NA,NA,"http://www.redfin.com/MN/Minneapolis/350-Manor-Dr-NE-55432/home/50052840","NORTHSTARMLS","5027834","N","Y",45.122361,-93.262116,2018-12-14
"168","MLS Listing",NA,"Single Family Residential","8543 Nicollet Ave S","Bloomington","MN",55420,219900,3,1,"Bloomington",1100,9583,1951,11,200,NA,"Active",NA,NA,"http://www.redfin.com/MN/Minneapolis/8543-Nicollet-Ave-55420/home/50078385","NORTHSTARMLS","5027780","N","Y",44.8481389,-93.278116,2018-12-14
"169","MLS Listing",NA,"Single Family Residential","2721 W 60th St","Minneapolis","MN",55410,269900,3,2,"Armatage",1004,5662,1946,11,269,NA,"Active",NA,NA,"http://www.redfin.com/MN/Minneapolis/2721-W-60th-St-55410/home/51421096","NORTHSTARMLS","5025581","N","Y",44.8941644,-93.3147938,2018-12-14
"170","MLS Listing",NA,"Single Family Residential","2815 8th Ave N","Minneapolis","MN",55411,269000,4,3,"Willard - Hay",1605,6969,2018,11,168,NA,"Active",NA,NA,"http://www.redfin.com/MN/Minneapolis/2815-N-8th-Ave-55411/home/51421474","NORTHSTARMLS","5027686","N","Y",44.9859215,-93.316628,2018-12-14
"171","MLS Listing",NA,"Single Family Residential","4904 93rd Ave N","Brooklyn Park","MN",55443,392590,3,3,"Brooklyn Park",2418,5227,2019,11,162,147,"Active",NA,NA,"http://www.redfin.com/MN/Brooklyn-Park/4904-93rd-Ave-N-55443/home/148409127","NORTHSTARMLS","5027541","N","Y",45.1233875,-93.3434593,2018-12-14
"172","MLS Listing",NA,"Single Family Residential","9200 James Ave N","Brooklyn Park","MN",55444,295000,5,2,"Brooklyn Park",2080,15245,1990,12,142,NA,"Active",NA,NA,"http://www.redfin.com/MN/Minneapolis/9200-James-Ave-N-55444/home/51373389","NORTHSTARMLS","5027602","N","Y",45.1209214,-93.3042544,2018-12-14
"173","MLS Listing",NA,"Single Family Residential","3806 57th Ave N","Brooklyn Center","MN",55429,219500,4,2,"Brooklyn Center",1900,9016,1955,13,116,NA,"Active",NA,NA,"http://www.redfin.com/MN/Minneapolis/3806-57th-Ave-N-55429/home/51290072","NORTHSTARMLS","5027601","N","Y",45.0586369,-93.3303352,2018-12-14
"174","MLS Listing",NA,"Single Family Residential","3000 Zenith Ave N","Robbinsdale","MN",55422,199900,3,1,"Robbinsdale",1260,6490,1941,13,159,NA,"Active",NA,NA,"http://www.redfin.com/MN/Minneapolis/3000-Zenith-Ave-N-55422/home/51326830","NORTHSTARMLS","5023552","N","Y",45.0115973,-93.3208491,2018-12-14
"175","MLS Listing",NA,"Single Family Residential","8001 Lea Cir","Bloomington","MN",55438,765500,5,7,"Bloomington",6377,19602,2002,13,120,168,"Active",NA,NA,"http://www.redfin.com/MN/Minneapolis/8001-Lea-Cir-55438/home/50002635","NORTHSTARMLS","5027167","N","Y",44.8580146,-93.3738102,2018-12-14
"176","MLS Listing",NA,"Single Family Residential","8807 Prestwick Pkwy N","Brooklyn Park","MN",55443,296000,4,3,"Brooklyn Park",1867,10890,1995,13,159,NA,"Active",NA,NA,"http://www.redfin.com/MN/Minneapolis/8807-Prestwick-Pkwy-55443/home/49938883","NORTHSTARMLS","5027562","N","Y",45.1165571,-93.3437525,2018-12-14
"177","MLS Listing",NA,"Single Family Residential","2001 Toledo Ave N","Golden Valley","MN",55422,324900,4,2,"Golden Valley",2007,12980,1971,13,162,NA,"Active",NA,NA,"http://www.redfin.com/MN/Minneapolis/2001-Toledo-Ave-N-55422/home/51402803","NORTHSTARMLS","5027561","N","Y",45.0001735,-93.3468307,2018-12-14
"178","MLS Listing",NA,"Single Family Residential","6934 Plymouth Ave N","Golden Valley","MN",55427,374900,4,3,"Golden Valley",2532,10715,1975,13,148,NA,"Active",NA,NA,"http://www.redfin.com/MN/Minneapolis/6934-Plymouth-Ave-N-55427/home/50033109","NORTHSTARMLS","5027552","N","Y",44.9932839,-93.3685134,2018-12-14
"179","MLS Listing",NA,"Single Family Residential","3306 98th Cir N","Brooklyn Park","MN",55443,390000,6,4,"Brooklyn Park",3064,17424,2003,14,127,6,"Active",NA,NA,"http://www.redfin.com/MN/Minneapolis/3306-98th-Cir-N-55443/home/50030275","NORTHSTARMLS","5027517","N","Y",45.1313434,-93.3241964,2018-12-14
"180","MLS Listing",NA,"Single Family Residential","506 University Ave NE","Minneapolis","MN",55413,529999,4,4,"St. Anthony West",2945,5662,1900,14,180,NA,"Active",NA,NA,"http://www.redfin.com/MN/Minneapolis/506-University-Ave-NE-55413/home/51370665","NORTHSTARMLS","5024080","N","Y",44.9937999,-93.2606678,2018-12-14
"181","MLS Listing",NA,"Single Family Residential","8946 Bryant Ave S","Bloomington","MN",55420,324900,5,2,"Bloomington",2488,16117,1953,14,131,NA,"Active","December-16-2018 10:00 AM","December-16-2018 12:00 PM","http://www.redfin.com/MN/Minneapolis/8946-Bryant-Ave-S-55420/home/51332534","NORTHSTARMLS","5027488","N","Y",44.8409396,-93.2914289,2018-12-14
"182","MLS Listing",NA,"Single Family Residential","3929 30th Ave S","Minneapolis","MN",55406,219900,3,1,"Standish",1209,5227,1911,14,182,NA,"Active",NA,NA,"http://www.redfin.com/MN/Minneapolis/3929-30th-Ave-S-55406/home/51354421","NORTHSTARMLS","5027342","N","Y",44.9314268,-93.2293174,2018-12-14
"183","MLS Listing",NA,"Single Family Residential","8906 Dunbar Knl N","Brooklyn Park","MN",55443,319900,3,3,"Brooklyn Park",2109,11325,1995,14,152,6,"Active",NA,NA,"http://www.redfin.com/MN/Minneapolis/8906-Dunbar-Knl-N-55443/home/49908591","NORTHSTARMLS","5025529","N","Y",45.1166102,-93.3293886,2018-12-14
"184","MLS Listing",NA,"Multi-Family (2-4 Unit)","4311 Abbott Ave S","Minneapolis","MN",55410,627000,4,2,"Linden Hills",3028,6534,1931,14,207,NA,"Active",NA,NA,"http://www.redfin.com/MN/Minneapolis/4311-Abbott-Ave-S-55410/home/50198336","NORTHSTARMLS","5020052","N","Y",44.9247176,-93.3223858,2018-12-14
"185","MLS Listing",NA,"Single Family Residential","3829 Hampshire Ave N","Crystal","MN",55427,269900,5,2,"Crystal",2501,11804,1954,14,108,NA,"Active","December-16-2018 11:00 AM","December-16-2018 01:00 PM","http://www.redfin.com/MN/Minneapolis/3829-Hampshire-Ave-N-55427/home/51396814","NORTHSTARMLS","5024968","N","Y",45.0256074,-93.3655162,2018-12-14
"186","MLS Listing",NA,"Single Family Residential","7701 Abbott Ave N","Brooklyn Park","MN",55443,299900,3,3,"Brooklyn Park",2542,16117,1977,14,118,NA,"Active",NA,NA,"http://www.redfin.com/MN/Minneapolis/7701-Abbott-Ave-N-55443/home/51438089","NORTHSTARMLS","5026590","N","Y",45.0957545,-93.3244842,2018-12-14
"187","MLS Listing",NA,"Single Family Residential","3906 Tyler St NE","Columbia Heights","MN",55421,179900,3,1,"Columbia Heights",1329,5967,1924,14,135,NA,"Active",NA,NA,"http://www.redfin.com/MN/Minneapolis/3906-Tyler-St-NE-55421/home/50995605","NORTHSTARMLS","5027333","N","Y",45.038668,-93.2419465,2018-12-14
"188","MLS Listing",NA,"Single Family Residential","4416 Poplar Bridge Rd","Bloomington","MN",55437,264900,4,2,"Bloomington",1600,10890,1961,14,166,NA,"Active","December-15-2018 12:30 PM","December-15-2018 02:30 PM","http://www.redfin.com/MN/Minneapolis/4416-Poplar-Bridge-Rd-55437/home/51305433","NORTHSTARMLS","4956718","N","Y",44.848797,-93.335905,2018-12-14
"189","MLS Listing",NA,"Single Family Residential","8074 Jefferson St NE","Spring Lake Park","MN",55432,224900,4,2,"Spring Lake Park",1100,11325,1960,14,204,NA,"Active",NA,NA,"http://www.redfin.com/MN/Minneapolis/8074-Jefferson-St-NE-55432/home/50929383","NORTHSTARMLS","5027311","N","Y",45.1146521,-93.2563966,2018-12-14
"190","MLS Listing",NA,"Single Family Residential","3816 Washburn Ave S","Minneapolis","MN",55410,585000,3,3,"Linden Hills",2298,4356,1971,14,255,NA,"Active","December-15-2018 12:00 PM","December-15-2018 02:00 PM","http://www.redfin.com/MN/Minneapolis/3816-Washburn-Ave-S-55410/home/51324329","NORTHSTARMLS","5027287","N","Y",44.933432,-93.317971,2018-12-14
"191","MLS Listing",NA,"Multi-Family (2-4 Unit)","1711 2nd St NE","Minneapolis","MN",55413,295000,4,2,"Bottineau",1576,3484,1900,14,187,NA,"Active",NA,NA,"http://www.redfin.com/MN/Minneapolis/1711-2nd-St-NE-55413/home/148373264","NORTHSTARMLS","5025824","N","Y",45.005699,-93.265887,2018-12-14
"192","MLS Listing",NA,"Single Family Residential","10518 Florida Ave N","Brooklyn Park","MN",55445,464000,4,4,"Brooklyn Park",3543,13503,2011,14,131,38,"Active",NA,NA,"http://www.redfin.com/MN/Minneapolis/10518-Florida-Ave-N-55445/home/50104233","NORTHSTARMLS","5027294","N","Y",45.146082,-93.362651,2018-12-14
"193","MLS Listing",NA,"Single Family Residential","1611 44th Ave N","Minneapolis","MN",55412,189900,2,1,"Webber - Camden",864,5227,1919,14,220,NA,"Active",NA,NA,"http://www.redfin.com/MN/Minneapolis/1611-N-44th-Ave-55412/home/51293682","NORTHSTARMLS","5027237","N","Y",45.0352331,-93.3002688,2018-12-14
"194","MLS Listing",NA,"Single Family Residential","5217 35th Ave S","Minneapolis","MN",55417,275000,3,2,"Minnehaha",1920,5227,1913,14,143,NA,"Active",NA,NA,"http://www.redfin.com/MN/Minneapolis/5217-35th-Ave-S-55417/home/51400862","NORTHSTARMLS","5025932","N","Y",44.9084295,-93.2213472,2018-12-14
"195","MLS Listing",NA,"Single Family Residential","7227 Pillsbury Ave S","Richfield","MN",55423,229900,3,1,"Richfield",1548,10149,1940,14,149,NA,"Active",NA,NA,"http://www.redfin.com/MN/Minneapolis/7227-Pillsbury-Ave-S-55423/home/51515363","NORTHSTARMLS","5026383","N","Y",44.8717319,-93.2817252,2018-12-14
"196","MLS Listing",NA,"Single Family Residential","4135 25th Ave S","Minneapolis","MN",55406,264900,3,2,"Standish",1616,5227,1924,14,164,NA,"Active","December-15-2018 11:00 AM","December-15-2018 12:30 PM","http://www.redfin.com/MN/Minneapolis/4135-25th-Ave-S-55406/home/51354648","NORTHSTARMLS","5027212","N","Y",44.9276024,-93.2356787,2018-12-14
"197","MLS Listing",NA,"Single Family Residential","4829 W 41st St","St. Louis Park","MN",55416,419900,4,2,"St. Louis Park",2147,9583,1950,14,196,NA,"Active",NA,NA,"http://www.redfin.com/MN/Minneapolis/4829-W-41st-St-55416/home/51317637","NORTHSTARMLS","5027209","N","Y",44.9284381,-93.3418506,2018-12-14
"198","MLS Listing",NA,"Single Family Residential","621 Penn Ave S","Minneapolis","MN",55405,319900,3,2,"Bryn - Mawr",1757,8276,1951,14,182,NA,"Active",NA,NA,"http://www.redfin.com/MN/Minneapolis/621-Penn-Ave-S-55405/home/51469781","NORTHSTARMLS","5027201","N","Y",44.9709889,-93.3080467,2018-12-14
"199","MLS Listing",NA,"Single Family Residential","5701 12th Ave S","Minneapolis","MN",55417,375000,3,3,"Diamond Lake",2105,6534,1951,14,178,NA,"Active","December-16-2018 01:00 PM","December-16-2018 03:00 PM","http://www.redfin.com/MN/Minneapolis/5701-12th-Ave-S-55417/home/49997386","NORTHSTARMLS","5022916","N","Y",44.8996052,-93.2574,2018-12-14
"200","MLS Listing",NA,"Single Family Residential","3504 30th Ave N","Robbinsdale","MN",55422,299000,3,2,"Robbinsdale",1738,6577,1948,14,172,NA,"Active",NA,NA,"http://www.redfin.com/MN/Minneapolis/3504-30th-Ave-N-55422/home/51326838","NORTHSTARMLS","5027170","N","Y",45.0117996,-93.3240712,2018-12-14
"201","MLS Listing",NA,"Single Family Residential","7308 James Ave N","Brooklyn Park","MN",55444,250000,4,2,"Brooklyn Park",2005,10890,1985,15,125,NA,"Active",NA,NA,"http://www.redfin.com/MN/Minneapolis/7308-James-Ave-N-55444/home/51461082","NORTHSTARMLS","5025985","N","Y",45.0880571,-93.3032358,2018-12-14
"202","MLS Listing",NA,"Single Family Residential","6307 Unity Ave N","Brooklyn Center","MN",55429,165000,3,1,"Brooklyn Center",1437,10018,1958,15,115,NA,"Active",NA,NA,"http://www.redfin.com/MN/Minneapolis/6307-Unity-Ave-N-55429/home/51513639","NORTHSTARMLS","5026504","N","Y",45.069789,-93.3498678,2018-12-14
"203","MLS Listing",NA,"Single Family Residential","7620 North St","St. Louis Park","MN",55426,365000,4,2,"St. Louis Park",1770,6969,1964,15,206,NA,"Active",NA,NA,"http://www.redfin.com/MN/Minneapolis/7620-North-St-55426/home/51423154","NORTHSTARMLS","5026825","N","Y",44.9336482,-93.3763085,2018-12-14
"204","MLS Listing",NA,"Single Family Residential","5251 Irving Ave N","Minneapolis","MN",55430,189900,3,2,"Shingle Creek",1728,5662,1954,15,110,NA,"Active",NA,NA,"http://www.redfin.com/MN/Minneapolis/5251-Irving-Ave-N-55430/home/49889126","NORTHSTARMLS","5026866","N","Y",45.0508783,-93.3007279,2018-12-14
"205","MLS Listing",NA,"Single Family Residential","5611 Vermont St","St. Louis Park","MN",55416,385000,4,2,"St. Louis Park",1502,20473,1916,15,256,NA,"Active",NA,NA,"http://www.redfin.com/MN/Minneapolis/5611-Vermont-St-55416/home/51430522","NORTHSTARMLS","5026519","N","Y",44.9221902,-93.3518436,2018-12-14
"206","MLS Listing",NA,"Single Family Residential","1410 15th Ave N","Minneapolis","MN",55411,163000,3,1,"Near - North",1068,7405,1900,15,153,NA,"Active",NA,NA,"http://www.redfin.com/MN/Minneapolis/1410-N-15th-Ave-55411/home/148369143","NORTHSTARMLS","5026895","N","Y",44.9943384,-93.2986826,2018-12-14
"207","MLS Listing",NA,"Single Family Residential","2717 Bryant Ave N","Minneapolis","MN",55411,200000,5,2,"Hawthorne",2000,5227,1904,15,100,NA,"Active",NA,NA,"http://www.redfin.com/MN/Minneapolis/2717-Bryant-Ave-N-55411/home/49924135","NORTHSTARMLS","5026968","N","Y",45.0083623,-93.2908088,2018-12-14
"208","MLS Listing",NA,"Single Family Residential","2800 W Armour Ter","St. Anthony","MN",55418,299999,2,2,"St. Anthony",1680,9539,1959,15,179,NA,"Active",NA,NA,"http://www.redfin.com/MN/Minneapolis/2800-W-Armour-Ter-55418/home/51309475","NORTHSTARMLS","5026830","N","Y",45.0212026,-93.2206527,2018-12-14
"209","New Construction Plan",NA,"Multi-Family (2-4 Unit)","Pinehurst","Brooklyn Park","MN",55443,248990,3,2.5,"Avebury Place",1640,NA,NA,NA,152,NA,"Active",NA,NA,"http://www.redfin.com/MN/Brooklyn-Park/Avebury-Place/Pinehurst/home/144672310","NewHomeSource.com","Plan-71534121","N","Y",45.1232209,-93.3461648,2018-12-14
"210","MLS Listing",NA,"Single Family Residential","5624 36th Ave S","Minneapolis","MN",55417,274900,6,2,"Morris Park",1856,5227,1949,15,148,NA,"Active","December-15-2018 11:00 AM","December-15-2018 01:00 PM","http://www.redfin.com/MN/Minneapolis/5624-36th-Ave-S-55417/home/51410793","NORTHSTARMLS","5002627","N","Y",44.9009395,-93.2207025,2018-12-14
"211","MLS Listing",NA,"Single Family Residential","5236 Clinton Ave","Minneapolis","MN",55419,700000,4,4,"Page",3672,8276,1925,15,191,NA,"Active","December-16-2018 12:00 PM","December-16-2018 02:00 PM","http://www.redfin.com/MN/Minneapolis/5236-Clinton-Ave-55419/home/51377676","NORTHSTARMLS","5024780","N","Y",44.9074697,-93.2718994,2018-12-14
"212","MLS Listing",NA,"Single Family Residential","4928 Sheridan Ave S","Minneapolis","MN",55410,639000,4,3,"Fulton",2530,5227,1959,15,253,NA,"Active","December-15-2018 12:00 PM","December-15-2018 02:00 PM","http://www.redfin.com/MN/Minneapolis/4928-Sheridan-Ave-S-55410/home/51390717","NORTHSTARMLS","5016439","N","Y",44.9132931,-93.3128272,2018-12-14
"213","MLS Listing",NA,"Single Family Residential","5026 Aldrich Ave S","Minneapolis","MN",55419,749000,5,4,"Lynnhurst",3857,6534,1913,15,194,NA,"Active",NA,NA,"http://www.redfin.com/MN/Minneapolis/5026-Aldrich-Ave-S-55419/home/51383488","NORTHSTARMLS","5026803","N","Y",44.9113668,-93.2898625,2018-12-14
"214","MLS Listing",NA,"Single Family Residential","2652 Webster Ave S","St. Louis Park","MN",55416,229500,3,1,"St. Louis Park",1160,4791,1920,16,198,NA,"Active",NA,NA,"http://www.redfin.com/MN/Minneapolis/2652-Webster-Ave-S-55416/home/51336386","NORTHSTARMLS","5026779","N","Y",44.9551417,-93.3511661,2018-12-14
"215","MLS Listing",NA,"Single Family Residential","5204 Dupont Ave N","Minneapolis","MN",55430,195000,3,2,"Lind - Bohanon",1723,6098,1945,16,113,NA,"Active",NA,NA,"http://www.redfin.com/MN/Minneapolis/5204-Dupont-Ave-55430/home/51359734","NORTHSTARMLS","5021719","N","Y",45.0496183,-93.2937758,2018-12-14
"216","MLS Listing",NA,"Single Family Residential","3751 Bryant Ave N","Minneapolis","MN",55412,69900,3,1,"McKinley",958,5227,1900,16,73,NA,"Active",NA,NA,"http://www.redfin.com/MN/Minneapolis/3751-Bryant-Ave-N-55412/home/51294661","NORTHSTARMLS","5026593","N","Y",45.0236075,-93.2909019,2018-12-14
"217","MLS Listing",NA,"Single Family Residential","4701 Normandale Highlands Dr","Bloomington","MN",55437,275000,4,2,"Bloomington",2045,12632,1968,16,134,NA,"Active","December-15-2018 01:30 PM","December-15-2018 03:00 PM","http://www.redfin.com/MN/Minneapolis/4701-Normandale-Highlands-Dr-55437/home/51399482","NORTHSTARMLS","5015593","N","Y",44.8198117,-93.3416858,2018-12-14
"218","MLS Listing",NA,"Single Family Residential","9024 Dupont Ave S","Bloomington","MN",55420,289900,3,2,"Bloomington",1735,11761,1956,16,167,NA,"Active",NA,NA,"http://www.redfin.com/MN/Minneapolis/9024-Dupont-Ave-S-55420/home/51332733","NORTHSTARMLS","5026563","N","Y",44.8395476,-93.2939906,2018-12-14
"219","New Construction Plan",NA,"Multi-Family (2-4 Unit)","Ontario","Brooklyn Park","MN",55443,253990,3,2.5,"Avebury Place",1675,NA,NA,NA,152,NA,"Active",NA,NA,"http://www.redfin.com/MN/Brooklyn-Park/Avebury-Place/Ontario/home/144672311","NewHomeSource.com","Plan-71534120","N","Y",45.1232209,-93.3461648,2018-12-14
"220","MLS Listing",NA,"Single Family Residential","4313 Fallgold Pkwy N","Brooklyn Park","MN",55443,399900,5,3,"Brooklyn Park",2404,12196,2007,16,166,NA,"Active",NA,NA,"http://www.redfin.com/MN/Minneapolis/4313-Fallgold-Pkwy-55443/home/49951763","NORTHSTARMLS","5025100","N","Y",45.1425374,-93.3369356,2018-12-14
"221","MLS Listing",NA,"Single Family Residential","2611 Randolph St NE","Minneapolis","MN",55418,250000,3,2,"Marshall Terrace",1676,4791,1953,16,149,NA,"Active",NA,NA,"http://www.redfin.com/MN/Minneapolis/2611-Randolph-St-NE-55418/home/51342254","NORTHSTARMLS","5025616","N","Y",45.0153478,-93.271064,2018-12-14
"222","MLS Listing",NA,"Single Family Residential","4100 Aldrich Ave S","Minneapolis","MN",55409,435000,4,2,"East Harriet",2035,6534,1916,16,214,NA,"Active",NA,NA,"http://www.redfin.com/MN/Minneapolis/4100-Aldrich-Ave-S-55409/home/51333434","NORTHSTARMLS","5026310","N","Y",44.9284635,-93.2898625,2018-12-14
"223","MLS Listing",NA,"Single Family Residential","823 Thomas Ave N","Minneapolis","MN",55411,195000,2,1,"Willard - Hay",1134,4791,1916,16,172,NA,"Active",NA,NA,"http://www.redfin.com/MN/Minneapolis/823-Thomas-Ave-N-55411/home/49969723","NORTHSTARMLS","5026077","N","Y",44.9868098,-93.3136491,2018-12-14
"224","MLS Listing",NA,"Single Family Residential","3940 37th Ave S","Minneapolis","MN",55406,244500,2,1,"Howe",900,4791,1908,17,272,NA,"Active",NA,NA,"http://www.redfin.com/MN/Minneapolis/3940-37th-Ave-S-55406/home/51315845","NORTHSTARMLS","5026395","N","Y",44.9311963,-93.2193843,2018-12-14
"225","MLS Listing",NA,"Multi-Family (2-4 Unit)","2825 18th Ave S","Minneapolis","MN",55407,305000,6,3,"East Phillips",2514,5227,1912,17,121,NA,"Active",NA,NA,"http://www.redfin.com/MN/Minneapolis/2825-18th-Ave-S-55407/home/51522797","NORTHSTARMLS","5026380","N","Y",44.9511473,-93.2483647,2018-12-14
"226","MLS Listing",NA,"Single Family Residential","3625 Boardman St","Minneapolis","MN",55417,165000,1,1,"Morris Park",854,6969,1925,17,193,NA,"Active",NA,NA,"http://www.redfin.com/MN/Minneapolis/3625-Boardman-St-55417/home/49901993","NORTHSTARMLS","5026339","N","Y",44.9042916,-93.2190408,2018-12-14
"227","New Construction Plan",NA,"Multi-Family (2-4 Unit)","Newport","Brooklyn Park","MN",55443,263990,3,2.5,"Avebury Place",1914,NA,NA,NA,138,NA,"Active",NA,NA,"http://www.redfin.com/MN/Brooklyn-Park/Avebury-Place/Newport/home/144672312","NewHomeSource.com","Plan-61534119","N","Y",45.1232209,-93.3461648,2018-12-14
"228","MLS Listing",NA,"Multi-Family (2-4 Unit)","2630 17th Ave S","Minneapolis","MN",55407,224900,6,2,"East Phillips",1900,6969,1885,17,118,NA,"Active",NA,NA,"http://www.redfin.com/MN/Minneapolis/2630-17th-Ave-S-55407/home/51522584","NORTHSTARMLS","5026269","N","Y",44.9544456,-93.2502356,2018-12-14
"229","MLS Listing",NA,"Single Family Residential","3110 W 88th St","Bloomington","MN",55431,399900,3,2,"Bloomington",2235,40510,1950,17,179,NA,"Active","December-15-2018 12:00 PM","December-15-2018 03:00 PM","http://www.redfin.com/MN/Minneapolis/3110-W-88th-St-55431/home/51323607","NORTHSTARMLS","5023368","N","Y",44.84495,-93.319744,2018-12-14
"230","MLS Listing",NA,"Single Family Residential","6037 12th Ave S","Minneapolis","MN",55417,269900,3,2,"Diamond Lake",1105,6969,1951,17,244,NA,"Active",NA,NA,"http://www.redfin.com/MN/Minneapolis/6037-12th-Ave-S-55417/home/51439910","NORTHSTARMLS","5024800","N","Y",44.892998,-93.2575965,2018-12-14
"231","MLS Listing",NA,"Single Family Residential","1311 Grand St NE","Minneapolis","MN",55413,175000,1,1,"Sheridan",863,5662,1900,17,203,NA,"Active",NA,NA,"http://www.redfin.com/MN/Minneapolis/1311-Grand-St-NE-55413/home/51377561","NORTHSTARMLS","5025614","N","Y",45.0010859,-93.2685655,2018-12-14
"232","MLS Listing",NA,"Single Family Residential","3535 Cedar Lake Ave","Minneapolis","MN",55416,739000,3,3,"Cedar - Isles - Dean",2248,6098,1916,17,329,NA,"Active","December-15-2018 12:00 PM","December-15-2018 02:00 PM","http://www.redfin.com/MN/Minneapolis/3535-Cedar-Lake-Ave-55416/home/49944683","NORTHSTARMLS","5026073","N","Y",44.9532206,-93.3246024,2018-12-14
"233","MLS Listing",NA,"Single Family Residential","40 Idaho Ave N","Golden Valley","MN",55427,515000,4,3,"Golden Valley",2329,12980,1961,17,221,NA,"Active",NA,NA,"http://www.redfin.com/MN/Minneapolis/40-Idaho-Ave-N-55427/home/51505259","NORTHSTARMLS","5026101","N","Y",44.9784479,-93.3653635,2018-12-14
"234","MLS Listing",NA,"Single Family Residential","5316 Morgan Ave S","Minneapolis","MN",55419,600000,4,2,"Lynnhurst",2780,9583,1957,18,216,NA,"Active","December-16-2018 01:00 PM","December-16-2018 03:00 PM","http://www.redfin.com/MN/Minneapolis/5316-Morgan-Ave-S-55419/home/51383207","NORTHSTARMLS","5024816","N","Y",44.9063518,-93.305099,2018-12-14
"235","MLS Listing",NA,"Single Family Residential","2912 42nd Ave S","Minneapolis","MN",55406,420000,5,2,"Cooper",2188,5227,1940,18,192,NA,"Active",NA,NA,"http://www.redfin.com/MN/Minneapolis/2912-42nd-Ave-S-55406/home/51491191","NORTHSTARMLS","5026054","N","Y",44.949631,-93.213025,2018-12-14
"236","MLS Listing",NA,"Single Family Residential","2820 Saint Louis Ave","Minneapolis","MN",55416,1500000,4,4,"Cedar - Isles - Dean",116,7405,2019,18,12931,NA,"Active",NA,NA,"http://www.redfin.com/MN/Minneapolis/2820-St-Louis-Ave-55416/home/51538197","NORTHSTARMLS","4990481","N","Y",44.9509889,-93.3222901,2018-12-14
"237","MLS Listing",NA,"Single Family Residential","2511 Jones Pl W","Bloomington","MN",55431,294900,3,2,"Bloomington",1840,14810,1963,18,160,NA,"Active",NA,NA,"http://www.redfin.com/MN/Minneapolis/2511-Jones-Pl-55431/home/50101276","NORTHSTARMLS","5025974","N","Y",44.8253,-93.311908,2018-12-14
"238","MLS Listing",NA,"Single Family Residential","3918 Hayes St NE","Columbia Heights","MN",55421,239900,3,2,"Columbia Heights",1753,13677,1951,18,137,NA,"Active",NA,NA,"http://www.redfin.com/MN/Minneapolis/3918-Hayes-St-NE-55421/home/50996195","NORTHSTARMLS","5025902","N","Y",45.0390668,-93.2350059,2018-12-14
"239","MLS Listing",NA,"Single Family Residential","3701 Lee Ave N","Robbinsdale","MN",55422,230000,4,2,"Robbinsdale",1650,4965,1951,18,139,NA,"Active",NA,NA,"http://www.redfin.com/MN/Minneapolis/3701-Lee-Ave-N-55422/home/51310766","NORTHSTARMLS","5025849","N","Y",45.022449,-93.336682,2018-12-14
"240","MLS Listing",NA,"Single Family Residential","5337 Florida Ave N","Crystal","MN",55428,230000,3,2,"Crystal",2316,13068,1952,19,99,NA,"Active",NA,NA,"http://www.redfin.com/MN/Minneapolis/5337-Florida-Ave-N-55428/home/51331159","NORTHSTARMLS","5025770","N","Y",45.0508149,-93.3631028,2018-12-14
"241","New Construction Plan",NA,"Multi-Family (2-4 Unit)","Fremont","Brooklyn Park","MN",55443,276990,3,2.5,"Avebury Place",1937,NA,NA,NA,143,NA,"Active",NA,NA,"http://www.redfin.com/MN/Brooklyn-Park/Avebury-Place/Fremont/home/144672313","NewHomeSource.com","Plan-61534118","N","Y",45.1232209,-93.3461648,2018-12-14
"242","MLS Listing",NA,"Single Family Residential","3317 PARK Ave S","Minneapolis","MN",55407,465000,5,5,"Central",3540,5227,1919,20,131,NA,"Active",NA,NA,"http://www.redfin.com/MN/Minneapolis/3317-Park-Ave-55407/home/51282638","NORTHSTARMLS","5025736","N","Y",44.9425902,-93.2647274,2018-12-14
"243","MLS Listing",NA,"Single Family Residential","5807 Halifax Ave N","Brooklyn Center","MN",55429,199900,3,2,"Brooklyn Center",1490,14331,1955,20,134,NA,"Active",NA,NA,"http://www.redfin.com/MN/Minneapolis/5807-Halifax-Ave-N-55429/home/51290081","NORTHSTARMLS","5022943","N","Y",45.0607022,-93.3332452,2018-12-14
"244","MLS Listing",NA,"Single Family Residential","2040 James Ave N","Minneapolis","MN",55411,165000,2,2,"Jordan",1128,6534,1900,21,146,NA,"Active",NA,NA,"http://www.redfin.com/MN/Minneapolis/2040-N-James-Ave-55411/home/51384508","NORTHSTARMLS","5025573","N","Y",45.0009352,-93.3017685,2018-12-14
"245","MLS Listing",NA,"Single Family Residential","2622 Pleasant Ave","Minneapolis","MN",55408,229900,3,2,"Whittier",1877,4791,1908,21,122,NA,"Active",NA,NA,"http://www.redfin.com/MN/Minneapolis/2622-Pleasant-Ave-55408/home/51517037","NORTHSTARMLS","5025664","N","Y",44.9547709,-93.2832917,2018-12-14
"246","MLS Listing",NA,"Single Family Residential","6264 Louisiana Ave N","Brooklyn Park","MN",55428,229900,3,2,"Brooklyn Park",1888,13503,1960,21,122,NA,"Active",NA,NA,"http://www.redfin.com/MN/Minneapolis/6264-Louisiana-Ave-N-55428/home/49903999","NORTHSTARMLS","5025647","N","Y",45.068154,-93.370059,2018-12-14
"247","MLS Listing",NA,"Single Family Residential","3659 Polk St NE","Minneapolis","MN",55418,249900,4,2,"Waite Park",1520,7405,1924,21,164,NA,"Active",NA,NA,"http://www.redfin.com/MN/Minneapolis/3659-Polk-St-NE-55418/home/51259728","NORTHSTARMLS","4961940","N","Y",45.0350777,-93.2444306,2018-12-14
"248","MLS Listing",NA,"Single Family Residential","15 W 59th St","Minneapolis","MN",55419,215000,3,2,"Windom",1587,5227,1950,21,135,NA,"Active",NA,NA,"http://www.redfin.com/MN/Minneapolis/15-W-59th-St-55419/home/49921935","NORTHSTARMLS","4985640","N","Y",44.8954184,-93.2788559,2018-12-14
"249","MLS Listing",NA,"Single Family Residential","2580 Winfield Ave","Golden Valley","MN",55422,324900,4,3,"Golden Valley",1950,12414,1959,21,167,NA,"Active",NA,NA,"http://www.redfin.com/MN/Minneapolis/2580-Winfield-Ave-55422/home/51472338","NORTHSTARMLS","5025624","N","Y",45.0065209,-93.3498878,2018-12-14
"250","MLS Listing",NA,"Single Family Residential","5244 Columbus Ave","Minneapolis","MN",55417,349000,3,2,"Page",1730,4356,1929,21,202,NA,"Active","December-16-2018 12:30 PM","December-16-2018 02:30 PM","http://www.redfin.com/MN/Minneapolis/5244-Columbus-Ave-55417/home/51369098","NORTHSTARMLS","5025622","N","Y",44.9075338,-93.2642268,2018-12-14
"251","MLS Listing",NA,"Single Family Residential","3304 Oakland Ave","Minneapolis","MN",55407,265000,3,2,"Central",1508,3920,1905,23,176,NA,"Active","December-15-2018 10:00 AM","December-15-2018 12:00 PM","http://www.redfin.com/MN/Minneapolis/3304-Oakland-Ave-55407/home/51282706","NORTHSTARMLS","5023040","N","Y",44.9429743,-93.2667121,2018-12-14
"252","MLS Listing",NA,"Single Family Residential","4300 44th Ave S","Minneapolis","MN",55406,350000,3,2,"Hiawatha",1772,5662,1945,23,198,NA,"Active",NA,NA,"http://www.redfin.com/MN/Minneapolis/4300-44th-Ave-S-55406/home/50190859","NORTHSTARMLS","5025512","N","Y",44.9250857,-93.2104933,2018-12-14
"253","MLS Listing",NA,"Single Family Residential","4534 Aldrich Ave N","Minneapolis","MN",55412,159900,3,1,"Lind - Bohanon",1086,4791,1923,23,147,NA,"Active",NA,NA,"http://www.redfin.com/MN/Minneapolis/4534-Aldrich-Ave-N-55412/home/51360602","NORTHSTARMLS","5025502","N","Y",45.0377583,-93.2898796,2018-12-14
"254","MLS Listing",NA,"Single Family Residential","3623 Benjamin St NE","Minneapolis","MN",55418,225000,4,2,"Waite Park",1728,6098,1963,23,130,NA,"Active",NA,NA,"http://www.redfin.com/MN/Minneapolis/3623-NE-Benjamin-St-55418/home/51276059","NORTHSTARMLS","5020998","N","Y",45.0343413,-93.2291795,2018-12-14
"255","MLS Listing",NA,"Single Family Residential","4634 Aldrich Ave N","Minneapolis","MN",55412,267400,4,3,"Lind - Bohanon",2359,5227,2018,23,113,NA,"Active",NA,NA,"http://www.redfin.com/MN/Minneapolis/4634-Aldrich-Ave-N-55412/home/50064819","NORTHSTARMLS","5025358","N","Y",45.0395089,-93.2899226,2018-12-14
"256","MLS Listing",NA,"Single Family Residential","6416 Minnetonka Blvd","St. Louis Park","MN",55426,229900,2,1,"St. Louis Park",1116,5227,1952,23,206,NA,"Active",NA,NA,"http://www.redfin.com/MN/Minneapolis/6416-Minnetonka-Blvd-55426/home/49931756","NORTHSTARMLS","5025477","N","Y",44.949869,-93.361376,2018-12-14
"257","MLS Listing",NA,"Single Family Residential","10041 Nord Rd","Bloomington","MN",55437,450000,4,3,"Bloomington",2048,10454,1968,23,220,NA,"Active",NA,NA,"http://www.redfin.com/MN/Minneapolis/10041-Nord-Rd-55437/home/49945690","NORTHSTARMLS","5024199","N","Y",44.8214614,-93.3452266,2018-12-14
"258","MLS Listing",NA,"Single Family Residential","3242 Upton Ave N","Minneapolis","MN",55412,171900,2,1,"Cleveland",840,5227,1925,23,205,NA,"Active",NA,NA,"http://www.redfin.com/MN/Minneapolis/3242-Upton-Ave-N-55412/home/51326499","NORTHSTARMLS","5025211","N","Y",45.0145398,-93.3143703,2018-12-14
"259","MLS Listing",NA,"Single Family Residential","7025 Portland Ave","Richfield","MN",55423,340000,4,3,"Richfield",2788,7579,1952,24,122,NA,"Active",NA,NA,"http://www.redfin.com/MN/Minneapolis/7025-Portland-Ave-55423/home/50041587","NORTHSTARMLS","5014122","N","Y",44.8753111,-93.2676334,2018-12-14
"260","MLS Listing",NA,"Multi-Family (2-4 Unit)","711 24th Ave N","Minneapolis","MN",55411,199900,3,2,"Hawthorne",1376,6969,1906,24,145,NA,"Active",NA,NA,"http://www.redfin.com/MN/Minneapolis/711-N-24th-Ave-55411/home/49978662","NORTHSTARMLS","5024721","N","Y",45.0035367,-93.2886736,2018-12-14
"261","MLS Listing",NA,"Single Family Residential","3815 Colfax Ave N","Minneapolis","MN",55412,79900,1,1,"Webber - Camden",670,5227,1915,24,119,NA,"Active",NA,NA,"http://www.redfin.com/MN/Minneapolis/3815-Colfax-Ave-N-55412/home/51294325","NORTHSTARMLS","5025156","N","Y",45.0244473,-93.2921451,2018-12-14
"262","MLS Listing",NA,"Single Family Residential","5917 Ensign Ave N","New Hope","MN",55428,215000,3,1,"New Hope",1167,10018,1961,24,184,NA,"Active",NA,NA,"http://www.redfin.com/MN/Minneapolis/5917-Ensign-Ave-N-55428/home/51313759","NORTHSTARMLS","5025274","N","Y",45.0605206,-93.3942103,2018-12-14
"263","MLS Listing",NA,"Single Family Residential","5139 Humboldt Ave N","Minneapolis","MN",55430,289900,5,3,"Shingle Creek",2920,6098,2002,24,99,22,"Active",NA,NA,"http://www.redfin.com/MN/Minneapolis/5139-Humboldt-Ave-N-55430/home/50116288","NORTHSTARMLS","5024975","N","Y",45.0488516,-93.299485,2018-12-14
"264","MLS Listing",NA,"Single Family Residential","5032 Aldrich Ave N","Minneapolis","MN",55430,219000,4,2,"Lind - Bohanon",1770,6098,1951,24,124,NA,"Active",NA,NA,"http://www.redfin.com/MN/Minneapolis/5032-Aldrich-Ave-N-55430/home/51359798","NORTHSTARMLS","5025234","N","Y",45.0469905,-93.289952,2018-12-14
"265","MLS Listing",NA,"Single Family Residential","4025 York Ave N","Robbinsdale","MN",55422,319900,4,2,"Robbinsdale",2281,6534,1941,24,140,NA,"Active",NA,NA,"http://www.redfin.com/MN/Minneapolis/4025-York-Ave-N-55422/home/49912077","NORTHSTARMLS","5021404","N","Y",45.028574,-93.320275,2018-12-14
"266","MLS Listing",NA,"Single Family Residential","7025 15th Ave S","Richfield","MN",55423,259900,3,1,"Richfield",1062,7971,1956,24,245,NA,"Active",NA,NA,"http://www.redfin.com/MN/Minneapolis/7025-S-15th-Ave-55423/home/50141179","NORTHSTARMLS","5025007","N","Y",44.8753327,-93.2538888,2018-12-14
"267","MLS Listing",NA,"Single Family Residential","3110 Vincent Ave N","Minneapolis","MN",55411,155000,3,1,"Jordan",1072,5227,1908,25,145,NA,"Active",NA,NA,"http://www.redfin.com/MN/Minneapolis/3110-Vincent-Ave-N-55411/home/51327530","NORTHSTARMLS","5024878","N","Y",45.0126423,-93.3156532,2018-12-14
"268","MLS Listing",NA,"Multi-Family (2-4 Unit)","3505 Cedar Ave S","Minneapolis","MN",55407,414900,4,2,"Corcoran",2196,6534,1900,25,189,NA,"Active",NA,NA,"http://www.redfin.com/MN/Minneapolis/3505-Cedar-Ave-55407/home/51275101","NORTHSTARMLS","5024795","N","Y",44.9392733,-93.2470144,2018-12-14
"269","MLS Listing",NA,"Single Family Residential","5612 Irving Ave N","Brooklyn Center","MN",55430,219900,4,2,"Brooklyn Center",2050,9975,1955,25,107,NA,"Active",NA,NA,"http://www.redfin.com/MN/Minneapolis/5612-Irving-Ave-N-55430/home/50282115","NORTHSTARMLS","5024697","N","Y",45.057328,-93.299901,2018-12-14
"270","MLS Listing",NA,"Single Family Residential","3320 Utah Ave S","St. Louis Park","MN",55426,249900,3,2,"St. Louis Park",1309,6534,1951,26,191,NA,"Active","December-15-2018 11:00 AM","December-15-2018 01:00 PM","http://www.redfin.com/MN/Minneapolis/3320-Utah-Ave-S-55426/home/51404932","NORTHSTARMLS","5023279","N","Y",44.9433266,-93.3824309,2018-12-14
"271","MLS Listing",NA,"Single Family Residential","4656 4th Ave S","Minneapolis","MN",55419,315000,3,2,"Field",2416,5227,1920,26,130,NA,"Active",NA,NA,"http://www.redfin.com/MN/Minneapolis/4656-4th-Ave-S-55419/home/51376114","NORTHSTARMLS","5022740","N","Y",44.9180425,-93.2706418,2018-12-14
"272","MLS Listing",NA,"Single Family Residential","1101 50th Ave N","Minneapolis","MN",55430,339000,4,4,"Lind - Bohanon",2810,4356,2019,26,121,20,"Active",NA,NA,"http://www.redfin.com/MN/Columbia-Heights/1101-50th-Ave-NE-55421/home/51253283","NORTHSTARMLS","5024648","N","Y",45.045482,-93.294275,2018-12-14
"273","MLS Listing",NA,"Single Family Residential","1109 50th Ave N","Minneapolis","MN",55430,319400,3,3,"Lind - Bohanon",1768,4356,2019,26,181,20,"Active",NA,NA,"http://www.redfin.com/MN/Columbia-Heights/1109-50th-Ave-NE-55421/home/51253289","NORTHSTARMLS","5024645","N","Y",45.045491,-93.294619,2018-12-14
"274","MLS Listing",NA,"Single Family Residential","1105 50th Ave N","Minneapolis","MN",55430,345000,3,3,"Lind - Bohanon",1975,7840,2019,26,175,20,"Active",NA,NA,"http://www.redfin.com/MN/Minneapolis/1105-50th-Ave-N-55430/home/148158516","NORTHSTARMLS","5024640","N","Y",45.0454883,-93.2944494,2018-12-14
"275","MLS Listing",NA,"Single Family Residential","1100 45th Ave NE","Columbia Heights","MN",55421,218900,4,2,"Columbia Heights",1795,7230,1962,26,122,NA,"Active",NA,NA,"http://www.redfin.com/MN/Minneapolis/1100-45th-Ave-NE-55421/home/50994821","NORTHSTARMLS","5024633","N","Y",45.049708,-93.2439349,2018-12-14
"276","MLS Listing",NA,"Multi-Family (2-4 Unit)","2442 S 15th Ave S","Minneapolis","MN",55404,249900,4,2,"Midtown Phillips",1768,5662,1900,26,141,NA,"Active",NA,NA,"http://www.redfin.com/MN/Minneapolis/2442-S-15th-Ave-55404/home/51521780","NORTHSTARMLS","5024622","N","Y",44.9576915,-93.2539545,2018-12-14
"277","MLS Listing",NA,"Single Family Residential","3435 S Elliot Ave","Minneapolis","MN",55407,259900,4,2,"Powderhorn Park",1604,4791,1906,26,162,NA,"Active",NA,NA,"http://www.redfin.com/MN/Minneapolis/3435-Elliot-Ave-55407/home/50176468","NORTHSTARMLS","5024619","N","Y",44.9403311,-93.2610147,2018-12-14
"278","MLS Listing",NA,"Single Family Residential","4836 Xerxes Ave S","Minneapolis","MN",55410,699777,5,4,"Fulton",2639,5662,1915,26,265,NA,"Active",NA,NA,"http://www.redfin.com/MN/Minneapolis/4836-Xerxes-Ave-S-55410/home/51390912","NORTHSTARMLS","5024618","N","Y",44.9148584,-93.3191994,2018-12-14
"279","MLS Listing",NA,"Single Family Residential","5404 Queen Ave N","Brooklyn Center","MN",55430,237900,4,2,"Brooklyn Center",1890,9670,1956,27,126,NA,"Active","December-15-2018 01:00 PM","December-15-2018 02:30 PM","http://www.redfin.com/MN/Minneapolis/5404-Queen-Ave-N-55430/home/50026095","NORTHSTARMLS","5024580","N","Y",45.0534134,-93.3102837,2018-12-14
"280","MLS Listing",NA,"Single Family Residential","1104 50th Ave N","Minneapolis","MN",55430,332500,3,3,"Lind - Bohanon",2665,4356,2019,27,125,20,"Active",NA,NA,"http://www.redfin.com/MN/Columbia-Heights/1104-50th-Ave-NE-55421/home/51253162","NORTHSTARMLS","5024564","N","Y",45.045953,-93.29445,2018-12-14
"281","MLS Listing",NA,"Single Family Residential","1108 50th Ave N","Minneapolis","MN",55430,307900,3,3,"Lind - Bohanon",1664,4356,2019,27,185,20,"Active",NA,NA,"http://www.redfin.com/MN/Columbia-Heights/1108-50th-Ave-NE-55421/home/51253165","NORTHSTARMLS","5024559","N","Y",45.045944,-93.29462,2018-12-14
"282","MLS Listing",NA,"Single Family Residential","3107 James Ave N","Minneapolis","MN",55411,179900,3,1,"Jordan",1090,5227,1886,28,165,NA,"Active",NA,NA,"http://www.redfin.com/MN/Minneapolis/3107-N-James-Ave-55411/home/49915011","NORTHSTARMLS","5024508","N","Y",45.012421,-93.3009099,2018-12-14
"283","MLS Listing",NA,"Single Family Residential","5318 Beard Ave S","Minneapolis","MN",55410,959900,4,4,"Fulton",3724,5227,2018,28,258,NA,"Active",NA,NA,"http://www.redfin.com/MN/Minneapolis/5318-Beard-Ave-S-55410/home/51391265","NORTHSTARMLS","5023683","N","Y",44.9065463,-93.3241955,2018-12-14
"284","MLS Listing",NA,"Single Family Residential","1312 17th Ave N","Minneapolis","MN",55411,295000,3,3,"Near - North",1838,9583,1911,28,161,NA,"Active",NA,NA,"http://www.redfin.com/MN/Minneapolis/1312-N-17th-Ave-55411/home/51384971","NORTHSTARMLS","5024230","N","Y",44.9965797,-93.2979212,2018-12-14
"285","MLS Listing",NA,"Single Family Residential","811 67th Ave N","Brooklyn Center","MN",55430,209900,3,1,"Brooklyn Center",1040,9975,1970,28,202,NA,"Active",NA,NA,"http://www.redfin.com/MN/Minneapolis/811-67th-Ave-N-55430/home/51528805","NORTHSTARMLS","5024471","N","Y",45.0762403,-93.2917918,2018-12-14
"286","MLS Listing",NA,"Single Family Residential","2010 Flag Ave South","St. Louis Park","MN",55426,799910,5,5,"St. Louis Park",4134,10018,2018,28,193,NA,"Active",NA,NA,"http://www.redfin.com/MN/St-Louis-Park/2010-Flag-Ave-S-55426/home/113778448","NORTHSTARMLS","5024210","N","Y",44.9641156,-93.3966185,2018-12-14
"287","MLS Listing",NA,"Single Family Residential","1713 W 85th St","Bloomington","MN",55431,219900,5,2,"Bloomington",2662,12632,1954,28,83,NA,"Active",NA,NA,"http://www.redfin.com/MN/Minneapolis/1713-W-85th-St-55431/home/50120075","NORTHSTARMLS","5024434","N","Y",44.8487826,-93.3016974,2018-12-14
"288","MLS Listing",NA,"Single Family Residential","4717 Minnehaha Ave","Minneapolis","MN",55406,289900,2,2,"Hiawatha",1411,4791,1919,28,205,NA,"Active",NA,NA,"http://www.redfin.com/MN/Minneapolis/4717-Minnehaha-Ave-55406/home/51399906","NORTHSTARMLS","5018821","N","Y",44.9178599,-93.2135099,2018-12-14
"289","MLS Listing",NA,"Single Family Residential","4444 43rd Ave S","Minneapolis","MN",55406,579900,3,3,"Hiawatha",2296,5227,2019,28,253,NA,"Active",NA,NA,"http://www.redfin.com/MN/Minneapolis/4444-43rd-Ave-S-55406/home/51316763","NORTHSTARMLS","5024463","N","Y",44.9220702,-93.2117592,2018-12-14
"290","MLS Listing",NA,"Single Family Residential","131 Mission Ln","Bloomington","MN",55420,444900,5,4,"Bloomington",3225,21344,1956,28,138,NA,"Active",NA,NA,"http://www.redfin.com/MN/Bloomington/131-Mission-Ln-55420/home/51434017","NORTHSTARMLS","5024361","N","Y",44.8123437,-93.276478,2018-12-14
"291","MLS Listing",NA,"Single Family Residential","4400 Stinson Blvd NE","Columbia Heights","MN",55421,200000,3,1,"Columbia Heights",1183,21344,1950,28,169,NA,"Active",NA,NA,"http://www.redfin.com/MN/Columbia-Heights/4400-NE-Stinson-Blvd-55421/home/145841689","NORTHSTARMLS","5023236","N","Y",45.0475888,-93.227909,2018-12-14
"292","MLS Listing",NA,"Single Family Residential","3746 Upton Ave N","Minneapolis","MN",55412,165000,3,1,"Cleveland",1046,NA,1923,28,158,NA,"Active",NA,NA,"http://www.redfin.com/MN/Minneapolis/3746-Upton-Ave-N-55412/home/51300543","NORTHSTARMLS","5024408","N","Y",45.0236228,-93.314394,2018-12-14
"293","MLS Listing",NA,"Single Family Residential","5325 Abbott Ave S","Minneapolis","MN",55410,949900,4,4,"Fulton",3213,5227,2018,28,296,NA,"Active",NA,NA,"http://www.redfin.com/MN/Minneapolis/5325-Abbott-Ave-S-55410/home/51391636","NORTHSTARMLS","5024409","N","Y",44.906273,-93.3223071,2018-12-14
"294","MLS Listing",NA,"Single Family Residential","3325 Hillsboro Ave S","St. Louis Park","MN",55426,349900,4,3,"St. Louis Park",2431,9147,1974,28,144,NA,"Active","December-16-2018 01:00 PM","December-16-2018 03:00 PM","http://www.redfin.com/MN/Minneapolis/3325-Hillsboro-Ave-S-55426/home/50108706","NORTHSTARMLS","5014266","N","Y",44.9430572,-93.3983901,2018-12-14
"295","MLS Listing",NA,"Single Family Residential","8739 Harrison Cir","Bloomington","MN",55437,274900,4,2,"Bloomington",1704,12632,1964,28,161,NA,"Active",NA,NA,"http://www.redfin.com/MN/Minneapolis/8739-Harrison-Cir-55437/home/50116794","NORTHSTARMLS","5024116","N","Y",44.845447,-93.329662,2018-12-14
"296","MLS Listing",NA,"Single Family Residential","4950 Harriet Ave","Minneapolis","MN",55419,500000,5,3,"Tangletown",3385,6098,1919,28,148,NA,"Active",NA,NA,"http://www.redfin.com/MN/Minneapolis/4950-Harriet-Ave-55419/home/51376894","NORTHSTARMLS","5024359","N","Y",44.9124961,-93.2860885,2018-12-14
"297","MLS Listing",NA,"Single Family Residential","7200 64th Ave N","Brooklyn Park","MN",55428,204900,3,1,"Brooklyn Park",1674,13503,1958,28,122,NA,"Active","December-16-2018 01:00 PM","December-16-2018 03:00 PM","http://www.redfin.com/MN/Minneapolis/7200-64th-Ave-N-55428/home/51506410","NORTHSTARMLS","5024173","N","Y",45.0717597,-93.372309,2018-12-14
"298","MLS Listing",NA,"Single Family Residential","8109 81st Ave N","Brooklyn Park","MN",55445,229900,3,2,"Brooklyn Park",1930,10890,1978,28,119,NA,"Active",NA,NA,"http://www.redfin.com/MN/Minneapolis/8109-81st-Ave-N-55445/home/49931413","NORTHSTARMLS","5018443","N","Y",45.101922,-93.385412,2018-12-14
"299","MLS Listing",NA,"Multi-Family (2-4 Unit)","4517 Nicollet Ave","Minneapolis","MN",55419,400000,4,2,"King Field",2184,5227,1913,28,183,NA,"Active",NA,NA,"http://www.redfin.com/MN/Minneapolis/4517-Nicollet-Ave-55419/home/50198016","NORTHSTARMLS","4992778","N","Y",44.9208328,-93.2775981,2018-12-14
"300","MLS Listing",NA,"Single Family Residential","4809 Woodlawn Blvd","Minneapolis","MN",55417,434900,3,3,"Keewaydin",1859,5227,1926,28,234,NA,"Active","December-15-2018 11:00 AM","December-15-2018 12:30 PM","http://www.redfin.com/MN/Minneapolis/4809-Woodlawn-Blvd-55417/home/51362552","NORTHSTARMLS","5024296","N","Y",44.9156451,-93.2331679,2018-12-14
"301","MLS Listing",NA,"Single Family Residential","10000 Brookside Ave","Bloomington","MN",55431,274900,4,2,"Bloomington",1548,11761,1955,28,178,NA,"Active",NA,NA,"http://www.redfin.com/MN/Minneapolis/10000-Brookside-Ave-S-55431/home/49940524","NORTHSTARMLS","5008210","N","Y",44.8226157,-93.3156666,2018-12-14
"302","MLS Listing",NA,"Single Family Residential","2723 N 3rd St","Minneapolis","MN",55411,145000,2,1,"Hawthorne",795,6969,1953,28,182,NA,"Active",NA,NA,"http://www.redfin.com/MN/Minneapolis/2723-N-3rd-St-55411/home/51342298","NORTHSTARMLS","5018825","N","Y",45.0079093,-93.2837236,2018-12-14
"303","MLS Listing",NA,"Single Family Residential","4367 Welcome Ave N","Crystal","MN",55422,183900,3,1,"Crystal",720,9801,1941,28,255,NA,"Active",NA,NA,"http://www.redfin.com/MN/Minneapolis/4367-Welcome-Ave-N-55422/home/51386533","NORTHSTARMLS","5024219","N","Y",45.035348,-93.351833,2018-12-14
"304","MLS Listing",NA,"Single Family Residential","4235 Tyler St NE","Columbia Heights","MN",55421,219950,3,2,"Columbia Heights",1714,7797,1955,28,128,NA,"Active",NA,NA,"http://www.redfin.com/MN/Minneapolis/4235-Tyler-St-NE-55421/home/50994592","NORTHSTARMLS","5024021","N","Y",45.0456572,-93.2338842,2018-12-14
"305","MLS Listing",NA,"Single Family Residential","4410 42nd Ave S","Minneapolis","MN",55406,324900,3,2,"Hiawatha",1264,4791,1932,28,257,NA,"Active",NA,NA,"http://www.redfin.com/MN/Minneapolis/4410-42nd-Ave-S-55406/home/49963185","NORTHSTARMLS","5020218","N","Y",44.922954,-93.2130643,2018-12-14
"306","MLS Listing",NA,"Single Family Residential","11030 Girard Curv","Bloomington","MN",55431,339500,2,2,"Bloomington",2146,13503,1981,28,158,NA,"Active",NA,NA,"http://www.redfin.com/MN/Bloomington/11030-Girard-Curv-55431/home/51468238","NORTHSTARMLS","5021866","N","Y",44.8044762,-93.2984927,2018-12-14
"307","MLS Listing",NA,"Single Family Residential","528 79th Ave NE","Spring Lake Park","MN",55432,241900,5,2,"Spring Lake Park",1724,10890,1965,28,140,NA,"Active","December-15-2018 01:00 PM","December-15-2018 03:00 PM","http://www.redfin.com/MN/Minneapolis/528-79th-Ave-NE-55432/home/50929678","NORTHSTARMLS","5018131","N","Y",45.111243,-93.257521,2018-12-14
"308","MLS Listing",NA,"Single Family Residential","3050 Scott Ave N","Golden Valley","MN",55422,359900,5,2,"Golden Valley",1872,21083,1962,28,192,NA,"Active",NA,NA,"http://www.redfin.com/MN/Minneapolis/3050-Scott-Ave-N-55422/home/51319755","NORTHSTARMLS","5024113","N","Y",45.0117194,-93.3461167,2018-12-14
"309","MLS Listing",NA,"Single Family Residential","4000 Aldrich Ave N","Minneapolis","MN",55412,151000,3,1,"Webber - Camden",1280,5227,1949,28,118,NA,"Active",NA,NA,"http://www.redfin.com/MN/Minneapolis/4000-Aldrich-Ave-N-55412/home/51293564","NORTHSTARMLS","5024092","N","Y",45.0277461,-93.2890846,2018-12-14
"310","MLS Listing",NA,"Single Family Residential","914 W 80 1/2 St","Bloomington","MN",55420,258500,4,2,"Bloomington",1540,10890,1954,28,168,NA,"Active",NA,NA,"http://www.redfin.com/MN/Minneapolis/914-W-80th-1-2-St-55420/home/49934662","NORTHSTARMLS","5024083","N","Y",44.8576406,-93.2917204,2018-12-14
"311","MLS Listing",NA,"Single Family Residential","3216 Xenwood Ave S","St. Louis Park","MN",55416,749900,5,4,"St. Louis Park",3324,5227,2018,29,226,NA,"Active","December-15-2018 02:00 PM","December-15-2018 04:00 PM","http://www.redfin.com/MN/Minneapolis/3216-Xenwood-Ave-S-55416/home/51385568","NORTHSTARMLS","5023684","N","Y",44.946111,-93.35218,2018-12-14
"312","MLS Listing",NA,"Single Family Residential","4559 Vincent Ave N","Minneapolis","MN",55412,270000,4,2,"Victory",1805,6534,1947,29,150,NA,"Active",NA,NA,"http://www.redfin.com/MN/Minneapolis/4559-Vincent-Ave-N-55412/home/51351340","NORTHSTARMLS","5019096","N","Y",45.0393829,-93.3170511,2018-12-14
"313","MLS Listing",NA,"Single Family Residential","7215 62nd Ave N","New Hope","MN",55428,335000,5,3,"New Hope",2284,16030,2019,29,147,NA,"Active",NA,NA,"http://www.redfin.com/MN/Minneapolis/7215-62nd-Ave-N-55428/home/49975212","NORTHSTARMLS","5023567","N","Y",45.065257,-93.372183,2018-12-14
